{
"type": "FeatureCollection",
"features": [
{ "type": "Feature", "properties": { "SAISIE": "2007\/05\/01", "SOURCE": "01", "REMARQUE": "Ouvert tous les jours sauf le mardi, 10h-12h et 14h-18h", "TELBUREAU": "", "COMMUNE": "MENTON", "ADRESSE": "Esplanade Palmero", "NOM": "Musée Cocteau", "IDNUM": 0.000000, "IDENT": "" }, "geometry": { "type": "Point", "coordinates": [ 7.508494, 43.774764 ] } }
,
{ "type": "Feature", "properties": { "SAISIE": "2007\/05\/01", "SOURCE": "01", "REMARQUE": "Ouvert tous les jours sauf le mardi, 10h-12h et 14h-18h", "TELBUREAU": "0493354971", "COMMUNE": "MENTON", "ADRESSE": "Musée des Beaux Arts du Palais C", "NOM": "Musée des Beaux Arts", "IDNUM": 0.000000, "IDENT": "" }, "geometry": { "type": "Point", "coordinates": [ 7.488920, 43.767081 ] } }
,
{ "type": "Feature", "properties": { "SAISIE": "2007\/05\/01", "SOURCE": "01", "REMARQUE": "Ouvert tous les jours sauf le mardi, 10h-12h et 14h-18h, expositions permanentes (-objets de fouilles recueillis sur les sites préhistor", "TELBUREAU": "0493572991", "COMMUNE": "ME", "ADRESSE": "Mairie de Menton - Place Ardoïno", "NOM": "Salle des Mariages Jean Cocteau", "IDNUM": 0.000000, "IDENT": "" }, "geometry": { "type": "Point", "coordinates": [ 7.503085, 43.775719 ] } }
,
{ "type": "Feature", "properties": { "SAISIE": "2007\/05\/01", "SOURCE": "01", "REMARQUE": "Propriété de l'Etat", "TELBUREAU": "0493412084", "COMMUNE": "LA TURBIE", "ADRESSE": "Cours Albert 1er 06320 LA TURBIE", "NOM": "Musée et Trophée d'Auguste", "IDNUM": 0.000000, "IDENT": "" }, "geometry": { "type": "Point", "coordinates": [ 7.402232, 43.744872 ] } }
,
{ "type": "Feature", "properties": { "SAISIE": "2009\/03\/02", "SOURCE": "CA", "REMARQUE": "Entrée libre", "TELBUREAU": "", "COMMUNE": "MENTON", "ADRESSE": "Rue Loredan-Larchey", "NOM": "Musée de Préhistoire Régional", "IDNUM": 0.000000, "IDENT": "" }, "geometry": { "type": "Point", "coordinates": [ 7.503428, 43.777058 ] } }
,
{ "type": "Feature", "properties": { "SAISIE": "0000\/00\/00", "SOURCE": "", "REMARQUE": "", "TELBUREAU": "0 4 92 41 76 66", "COMMUNE": "MENTON", "ADRESSE": "8, avenue Boyer", "NOM": "Galerie d’Art Contemporain", "IDNUM": 0.000000, "IDENT": "" }, "geometry": { "type": "Point", "coordinates": [ 7.497596, 43.774341 ] } }
,
{ "type": "Feature", "properties": { "SAISIE": "2009\/03\/02", "SOURCE": "CA", "REMARQUE": "Entrée Libre", "TELBUREAU": "", "COMMUNE": "MENTON", "ADRESSE": "3, avenue de la Madone", "NOM": "Musée des Beaux-Arts, Palais Car", "IDNUM": 0.000000, "IDENT": "" }, "geometry": { "type": "Point", "coordinates": [ 7.487965, 43.766639 ] } }
,
{ "type": "Feature", "properties": { "SAISIE": "0000\/00\/00", "SOURCE": "", "REMARQUE": "Exposition d'objets et d'outils usuels d'époques révolues", "TELBUREAU": "33 (0)4 93 91 71 71", "COMMUNE": "PEILLE", "ADRESSE": "Place de l'Armée", "NOM": "MUSEE DU TERROIR", "IDNUM": 0.000000, "IDENT": "" }, "geometry": { "type": "Point", "coordinates": [ 7.403074, 43.803002 ] } }
,
{ "type": "Feature", "properties": { "SAISIE": "2010\/06\/09", "SOURCE": "CC", "REMARQUE": "", "TELBUREAU": "", "COMMUNE": "CASTELLAR", "ADRESSE": "06500 CASTELLAR", "NOM": "Palais des Lascaris", "IDNUM": 0.000000, "IDENT": "" }, "geometry": { "type": "Point", "coordinates": [ 7.497041, 43.804715 ] } }

]
}
