{
"type": "FeatureCollection",
"features": [
{ "type": "Feature", "properties": { "ADRESSE": "44 avenue de Verdun", "CODE_POSTA": "6500", "VILLE": "gorbio", "PAYS": "france", "NOM": "Poste de Gorbio", "DESCRIPTIO": "04 93 35 79 97", "LAT": "43.783952", "LNG": "7.441802" }, "geometry": { "type": "Point", "coordinates": [ 7.441802, 43.783952 ] } }
,
{ "type": "Feature", "properties": { "ADRESSE": "2 place neuve", "CODE_POSTA": "6320", "VILLE": "la turbie", "PAYS": "france", "NOM": "Poste de La Turbie", "DESCRIPTIO": "04 92 41 34 15", "LAT": "43.731889", "LNG": "7.423072" }, "geometry": { "type": "Point", "coordinates": [ 7.423072, 43.731889 ] } }
,
{ "type": "Feature", "properties": { "ADRESSE": "12 avenue des Acacias", "CODE_POSTA": "6500", "VILLE": "menton", "PAYS": "france", "NOM": "Poste du Borrigo", "DESCRIPTIO": "04 93 57 62 72", "LAT": "43.781853", "LNG": "7.485495" }, "geometry": { "type": "Point", "coordinates": [ 7.485495, 43.781853 ] } }
,
{ "type": "Feature", "properties": { "ADRESSE": "15 route de Sospel", "CODE_POSTA": "6500", "VILLE": "menton", "PAYS": "france", "NOM": "Poste du Carei", "DESCRIPTIO": "04 93 35 61 94", "LAT": "43.805098", "LNG": "7.485759" }, "geometry": { "type": "Point", "coordinates": [ 7.485759, 43.805098 ] } }
,
{ "type": "Feature", "properties": { "ADRESSE": "68b avenue Edouard 7", "CODE_POSTA": "6500", "VILLE": "menton", "PAYS": "france", "NOM": "Poste Principale Menton", "DESCRIPTIO": "04 93 28 64 84", "LAT": "43.772671", "LNG": "7.496045" }, "geometry": { "type": "Point", "coordinates": [ 7.496045, 43.772671 ] } }
,
{ "type": "Feature", "properties": { "ADRESSE": "45 avenue Paul Doumer", "CODE_POSTA": "6190", "VILLE": "roquebrune-cap-martin", "PAYS": "france", "NOM": "Poste Principale de Roquebrune", "DESCRIPTIO": "04 92 10 43 50", "LAT": "43.75737", "LNG": "7.474302" }, "geometry": { "type": "Point", "coordinates": [ 7.474302, 43.757370 ] } }
,
{ "type": "Feature", "properties": { "ADRESSE": "2 avenue de la Pinède", "CODE_POSTA": "6190", "VILLE": "roquebrune-cap-martin", "PAYS": "france", "NOM": "Poste de Carnolès", "DESCRIPTIO": "04 92 10 58 00", "LAT": "43.764988", "LNG": "7.480617" }, "geometry": { "type": "Point", "coordinates": [ 7.480617, 43.764988 ] } }
,
{ "type": "Feature", "properties": { "ADRESSE": "place de la Fontaine", "CODE_POSTA": "6190", "VILLE": "roquebrune-cap-martin", "PAYS": "france", "NOM": "Poste du village", "DESCRIPTIO": "04 93 35 00 96", "LAT": "43.764951", "LNG": "7.460689" }, "geometry": { "type": "Point", "coordinates": [ 7.460689, 43.764951 ] } }
,
{ "type": "Feature", "properties": { "ADRESSE": "avenue de la France", "CODE_POSTA": "6190", "VILLE": "roquebrune-cap-martin", "PAYS": "france", "NOM": "Poste Saint Roman", "DESCRIPTIO": "04 93 78 06 79", "LAT": "43.75335", "LNG": "7.443197" }, "geometry": { "type": "Point", "coordinates": [ 7.443197, 43.753350 ] } }
,
{ "type": "Feature", "properties": { "ADRESSE": "3515 route de Mont Gros", "CODE_POSTA": "6500", "VILLE": "castellar", "PAYS": "france", "NOM": "Poste de Castellar", "DESCRIPTIO": "04 93 41 53 75", "LAT": "43.803346", "LNG": "7.489024" }, "geometry": { "type": "Point", "coordinates": [ 7.489024, 43.803346 ] } }

]
}
