[
{
"type": "FeatureCollection",
"features": [
{ "type": "Feature", "properties": { "ADRESSE": "20 rue des Soeurs Munet", "CODE_POSTA": "06500", "VILLE": "menton", "PAYS": "France", "NOM": "ADAPEI", "DESCRIPTIO": "04 93 28 50 3", "SOURCE": "CARF", "DATEDESAIS": "06\/06\/2008", "LAT": "43.774309", "LNG": "7.49246" }, "geometry": { "type": "Point", "coordinates": [ 7.492455, 43.774314 ] } }

]
}
,
{
"type": "FeatureCollection",
"features": [
{ "type": "Feature", "properties": { "NOM": "ADERF", "ADRESSE": "8 val de Menton", "CODE_POSTA": "06500", "VILLE": "menton", "PAYS": "France", "RESPONSABL": "Cédrick Hérisson", "PRésIDENT": "Claude Gaven", "TélépHONE": "04 93 57 01 08", "DESCRIPTIO": "Cette association mise en place le 06 août 2001 a pour vocation le développement économique du territoire de la Communauté d’Agglomération de la Riviera Française", "SOURCE": "CARF", "DE_SAISIE": "02\/02008", "LAT": "43.776666", "LNG": "7.505068" }, "geometry": { "type": "Point", "coordinates": [ 7.505063, 43.776671 ] } }

]
}
,
{
"type": "FeatureCollection",
"features": [
{ "type": "Feature", "properties": { "NOM": "ANPE", "ADRESSE": "Le Méditerranée 30, avenue Henry", "TélépHONE": "0811.55.01.06", "DATEDESAIS": "2008\/05\/13" }, "geometry": { "type": "Point", "coordinates": [ 7.500766, 43.776298 ] } }

]
}
,
{
"type": "FeatureCollection",
"features": [
{ "type": "Feature", "properties": { "NOM": "ASSEDIC", "ADRESSE": "8 rue Guyau", "TélépHONE": "0493820545", "DATEDESAIS": "2008\/05\/13" }, "geometry": { "type": "Point", "coordinates": [ 7.504539, 43.776494 ] } }

]
}
,
{
"type": "FeatureCollection",
"features": [
{ "type": "Feature", "properties": { "ADRESSE": "Chapelle des Pénitents Blancs", "POSTAL": "0", "VILLE": "GORBIO", "PAYS": "France", "NOM": "Chapelle des Pénitents Blancs", "DESCRIPTIO": "", "PRODUCTEUR": "CARF", "DATE_DE_SA": "2010\/07\/01" }, "geometry": { "type": "Point", "coordinates": [ 7.444899, 43.786575 ] } }

]
}
,
{
"type": "FeatureCollection",
"features": [
{ "type": "Feature", "properties": { "IDENT": "Mairie de Beausoleil", "IDNUM": 0, "NOM": "Mairie de Beausoleil", "INTERNCÞ": "http:\/\/www.villedebeausoleil.fr", "ADRESSE": "", "TélépHONE": "04 93 41 71 71", "PRODUCTEUR": "CARF", "DE_SAID_": "2007\/12\/11" }, "geometry": { "type": "Point", "coordinates": [ 7.425575, 43.743529 ] } }
,
{ "type": "Feature", "properties": { "IDENT": "Mairie de Menton", "IDNUM": 0, "NOM": "Mairie de Menton", "INTERNCÞ": "http:\/\/www.villedementon.com", "ADRESSE": "17 rue de la République", "TélépHONE": "04 92 10 50 12", "PRODUCTEUR": "CARF", "DE_SAID_": "2007\/12\/11" }, "geometry": { "type": "Point", "coordinates": [ 7.502946, 43.775669 ] } }
,
{ "type": "Feature", "properties": { "IDENT": "Mairie de Gorbio", "IDNUM": 0, "NOM": "Mairie de Gorbio", "INTERNCÞ": "http:\/\/www.gorbio.fr", "ADRESSE": "", "TélépHONE": "04 92 10 66 50", "PRODUCTEUR": "CARF", "DE_SAID_": "2007\/12\/11" }, "geometry": { "type": "Point", "coordinates": [ 7.444371, 43.786653 ] } }
,
{ "type": "Feature", "properties": { "IDENT": "Mairie de Castillon", "IDNUM": 0, "NOM": "Mairie de Castillon", "INTERNCÞ": "http:\/\/www.castillon06.com", "ADRESSE": "", "TélépHONE": "04 93 04 32 00", "PRODUCTEUR": "CARF", "DE_SAID_": "2007\/12\/11" }, "geometry": { "type": "Point", "coordinates": [ 7.471637, 43.833079 ] } }
,
{ "type": "Feature", "properties": { "IDENT": "Mairie de Moulinet", "IDNUM": 0, "NOM": "Mairie de Moulinet", "INTERNCÞ": "mailto:secretaire.moulinet@tiscali.fr", "ADRESSE": "", "TélépHONE": "04 93 04 80 07", "PRODUCTEUR": "", "DE_SAID_": "2007\/12\/11" }, "geometry": { "type": "Point", "coordinates": [ 7.413394, 43.942137 ] } }
,
{ "type": "Feature", "properties": { "IDENT": "Mairie de Sainte Agnès", "IDNUM": 0, "NOM": "Mairie de Sainte Agnès", "INTERNCÞ": "http:\/\/www.sainteagnes.fr", "ADRESSE": "", "TélépHONE": "04 93 35 84 58", "PRODUCTEUR": "CARF", "DE_SAID_": "2007\/12\/11" }, "geometry": { "type": "Point", "coordinates": [ 7.468982, 43.789281 ] } }
,
{ "type": "Feature", "properties": { "IDENT": "Mairie de Roquebrune Cap Martin", "IDNUM": 0, "NOM": "Mairie de Roquebrune Cap Martin", "INTERNCÞ": "http:\/\/www.roquebrune-cap-martin.com", "ADRESSE": "", "TélépHONE": "04 92 10 48 48", "PRODUCTEUR": "CARF", "DE_SAID_": "2008\/01\/16" }, "geometry": { "type": "Point", "coordinates": [ 7.473674, 43.757792 ] } }
,
{ "type": "Feature", "properties": { "IDENT": "Mairie de Sospel", "IDNUM": 0, "NOM": "Mairie de Sospel", "INTERNCÞ": "http:\/\/www.sospel.fr", "ADRESSE": "", "TélépHONE": "04 93 04 33 00", "PRODUCTEUR": "CARF", "DE_SAID_": "2007\/12\/11" }, "geometry": { "type": "Point", "coordinates": [ 7.449699, 43.877279 ] } }
,
{ "type": "Feature", "properties": { "IDENT": "Mairie de La Turbie", "IDNUM": 0, "NOM": "Mairie de La Turbie", "INTERNCÞ": "http:\/\/www.ville-la-turbie.fr", "ADRESSE": "", "TélépHONE": "04 92 41 51 61", "PRODUCTEUR": "CARF", "DE_SAID_": "2007\/12\/11" }, "geometry": { "type": "Point", "coordinates": [ 7.399633, 43.745321 ] } }
,
{ "type": "Feature", "properties": { "IDENT": "", "IDNUM": 0, "NOM": "Mairie de Castellar", "INTERNCÞ": "", "ADRESSE": "", "TélépHONE": "", "PRODUCTEUR": "", "DE_SAID_": "0000\/00\/00" }, "geometry": { "type": "Point", "coordinates": [ 7.496717, 43.803295 ] } }
,
{ "type": "Feature", "properties": { "IDENT": "", "IDNUM": 0, "NOM": "Mairie de Breil-Sur-Roya", "INTERNCÞ": "", "ADRESSE": "", "TélépHONE": "", "PRODUCTEUR": "", "DE_SAID_": "0000\/00\/00" }, "geometry": { "type": "Point", "coordinates": [ 7.514731, 43.938334 ] } }
,
{ "type": "Feature", "properties": { "IDENT": "", "IDNUM": 0, "NOM": "Mairie de Saorge", "INTERNCÞ": "", "ADRESSE": "", "TélépHONE": "", "PRODUCTEUR": "", "DE_SAID_": "0000\/00\/00" }, "geometry": { "type": "Point", "coordinates": [ 7.552946, 43.987965 ] } }
,
{ "type": "Feature", "properties": { "IDENT": "", "IDNUM": 0, "NOM": "Mairie de Fontan", "INTERNCÞ": "", "ADRESSE": "", "TélépHONE": "", "PRODUCTEUR": "", "DE_SAID_": "0000\/00\/00" }, "geometry": { "type": "Point", "coordinates": [ 7.554230, 44.003141 ] } }
,
{ "type": "Feature", "properties": { "IDENT": "", "IDNUM": 0, "NOM": "Mairie de Tende", "INTERNCÞ": "", "ADRESSE": "", "TélépHONE": "", "PRODUCTEUR": "", "DE_SAID_": "0000\/00\/00" }, "geometry": { "type": "Point", "coordinates": [ 7.587214, 44.087092 ] } }
,
{ "type": "Feature", "properties": { "IDENT": "", "IDNUM": 0, "NOM": "Mairie de la Brigue", "INTERNCÞ": "", "ADRESSE": "", "TélépHONE": "", "PRODUCTEUR": "", "DE_SAID_": "0000\/00\/00" }, "geometry": { "type": "Point", "coordinates": [ 7.639334, 44.051985 ] } }
,
{ "type": "Feature", "properties": { "IDENT": "", "IDNUM": 0, "NOM": "Mairie Annexe au village", "INTERNCÞ": "", "ADRESSE": "", "TélépHONE": "", "PRODUCTEUR": "CARF", "DE_SAID_": "2010\/06\/30" }, "geometry": { "type": "Point", "coordinates": [ 7.461490, 43.800605 ] } }

]
}
,
{
"type": "FeatureCollection",
"features": [
{ "type": "Feature", "properties": { "ADRESSE": "1 rue Saint Charles", "CODE_POSTA": "06500", "VILLE": "menton", "PAYS": "france", "NOM": "Bibliothèque de la flamme bleu", "DESCRIPTIO": "04 92 10 03 03", "LAT": "43.776082", "LNG": "7.502415" }, "geometry": { "type": "Point", "coordinates": [ 7.502410, 43.776088 ] } }
,
{ "type": "Feature", "properties": { "ADRESSE": "8 avenue Boyer", "CODE_POSTA": "06500", "VILLE": "menton", "PAYS": "france", "NOM": "Bibliothèque municipale", "DESCRIPTIO": "04 92 41 76 60", "LAT": "43.774108", "LNG": "7.497573" }, "geometry": { "type": "Point", "coordinates": [ 7.497568, 43.774112 ] } }
,
{ "type": "Feature", "properties": { "ADRESSE": "15 rue Saint Michel", "CODE_POSTA": "06500", "VILLE": "menton", "PAYS": "france", "NOM": "Bibliothèque municipale- Enfan", "DESCRIPTIO": "04 93 28 14 94", "LAT": "43.775326", "LNG": "7.505193" }, "geometry": { "type": "Point", "coordinates": [ 7.505188, 43.775331 ] } }
,
{ "type": "Feature", "properties": { "ADRESSE": "7 avenue Thiers", "CODE_POSTA": "06500", "VILLE": "menton", "PAYS": "france", "NOM": "Bibliothèque pour tous", "DESCRIPTIO": "04 93 35 58 58", "LAT": "43.774285", "LNG": "7.496012" }, "geometry": { "type": "Point", "coordinates": [ 7.496007, 43.774290 ] } }
,
{ "type": "Feature", "properties": { "ADRESSE": "Place Saint Michel", "CODE_POSTA": "06380", "VILLE": "sospel", "PAYS": "france", "NOM": "Bibliothèque municipale", "DESCRIPTIO": "04 93 04 33 26", "LAT": "43.877193", "LNG": "7.447436" }, "geometry": { "type": "Point", "coordinates": [ 7.447431, 43.877197 ] } }

]
}
,
{
"type": "FeatureCollection",
"features": [
{ "type": "Feature", "properties": { "ADRESSE": "1F AVENUE D' ALSACE", "CODE_POSTA": "06240", "VILLE": "BEAUSOLEIL", "PAYS": "France", "NOM": "Bac de regroupement", "DESCRIPTIO": "3060752 0340 CIVHO", "LAT": "43.739046", "LNG": "7.419063", "ACCURACY": "8", "NBADRRETUR": "1", "ERROR_ADDR": "1, Avenue d'Alsace, 06240 Beau", "CODE": "200" }, "geometry": { "type": "Point", "coordinates": [ 7.419058, 43.739052 ] } }
,
{ "type": "Feature", "properties": { "ADRESSE": "7 AVENUE D' ALSACE", "CODE_POSTA": "06240", "VILLE": "BEAUSOLEIL", "PAYS": "France", "NOM": "Bac de regroupement", "DESCRIPTIO": "3060753 0340 CIVHO", "LAT": "43.738777", "LNG": "7.418133", "ACCURACY": "8", "NBADRRETUR": "1", "ERROR_ADDR": "7, Avenue d'Alsace, 06240 Beau", "CODE": "200" }, "geometry": { "type": "Point", "coordinates": [ 7.418128, 43.738782 ] } }
,
{ "type": "Feature", "properties": { "ADRESSE": "7 AVENUE D' ALSACE", "CODE_POSTA": "06240", "VILLE": "BEAUSOLEIL", "PAYS": "France", "NOM": "Bac de regroupement", "DESCRIPTIO": "3060755 0660 CIBNO", "LAT": "43.738777", "LNG": "7.418133", "ACCURACY": "8", "NBADRRETUR": "1", "ERROR_ADDR": "7, Avenue d'Alsace, 06240 Beau", "CODE": "200" }, "geometry": { "type": "Point", "coordinates": [ 7.418128, 43.738782 ] } }
,
{ "type": "Feature", "properties": { "ADRESSE": "7 AVENUE D' ALSACE", "CODE_POSTA": "06240", "VILLE": "BEAUSOLEIL", "PAYS": "France", "NOM": "Bac de regroupement", "DESCRIPTIO": "3060754 0660 CIJAO", "LAT": "43.738777", "LNG": "7.418133", "ACCURACY": "8", "NBADRRETUR": "1", "ERROR_ADDR": "7, Avenue d'Alsace, 06240 Beau", "CODE": "200" }, "geometry": { "type": "Point", "coordinates": [ 7.418128, 43.738782 ] } }
,
{ "type": "Feature", "properties": { "ADRESSE": "10 AVENUE D' ALSACE", "CODE_POSTA": "06240", "VILLE": "BEAUSOLEIL", "PAYS": "France", "NOM": "Bac de regroupement", "DESCRIPTIO": "6216353 0340 BN OP", "LAT": "43.738724", "LNG": "7.418027", "ACCURACY": "8", "NBADRRETUR": "1", "ERROR_ADDR": "10, Avenue d'Alsace, 06240 Bea", "CODE": "200" }, "geometry": { "type": "Point", "coordinates": [ 7.418023, 43.738729 ] } }
,
{ "type": "Feature", "properties": { "ADRESSE": "10 AVENUE D' ALSACE", "CODE_POSTA": "06240", "VILLE": "BEAUSOLEIL", "PAYS": "France", "NOM": "Bac de regroupement", "DESCRIPTIO": "6216352 0340 VH OP", "LAT": "43.738724", "LNG": "7.418027", "ACCURACY": "8", "NBADRRETUR": "1", "ERROR_ADDR": "10, Avenue d'Alsace, 06240 Bea", "CODE": "200" }, "geometry": { "type": "Point", "coordinates": [ 7.418023, 43.738729 ] } }
,
{ "type": "Feature", "properties": { "ADRESSE": "10 AVENUE D' ALSACE", "CODE_POSTA": "06240", "VILLE": "BEAUSOLEIL", "PAYS": "France", "NOM": "Bac de regroupement", "DESCRIPTIO": "5537953 0660 GT\/VF", "LAT": "43.738724", "LNG": "7.418027", "ACCURACY": "8", "NBADRRETUR": "1", "ERROR_ADDR": "10, Avenue d'Alsace, 06240 Bea", "CODE": "200" }, "geometry": { "type": "Point", "coordinates": [ 7.418023, 43.738729 ] } }
,
{ "type": "Feature", "properties": { "ADRESSE": "10 AVENUE D' ALSACE", "CODE_POSTA": "06240", "VILLE": "BEAUSOLEIL", "PAYS": "France", "NOM": "Bac de regroupement", "DESCRIPTIO": "6216378 0660 GT\/VF", "LAT": "43.738724", "LNG": "7.418027", "ACCURACY": "8", "NBADRRETUR": "1", "ERROR_ADDR": "10, Avenue d'Alsace, 06240 Bea", "CODE": "200" }, "geometry": { "type": "Point", "coordinates": [ 7.418023, 43.738729 ] } }
,
{ "type": "Feature", "properties": { "ADRESSE": "12 AVENUE D' ALSACE", "CODE_POSTA": "06240", "VILLE": "BEAUSOLEIL", "PAYS": "France", "NOM": "Bac de regroupement", "DESCRIPTIO": "3060759 0340 CIBNO", "LAT": "43.738832", "LNG": "7.417723", "ACCURACY": "8", "NBADRRETUR": "1", "ERROR_ADDR": "12, Avenue d'Alsace, 06240 Bea", "CODE": "200" }, "geometry": { "type": "Point", "coordinates": [ 7.417718, 43.738837 ] } }
,
{ "type": "Feature", "properties": { "ADRESSE": "12 AVENUE D' ALSACE", "CODE_POSTA": "06240", "VILLE": "BEAUSOLEIL", "PAYS": "France", "NOM": "Bac de regroupement", "DESCRIPTIO": "3060761 0660 CIJAO", "LAT": "43.738832", "LNG": "7.417723", "ACCURACY": "8", "NBADRRETUR": "1", "ERROR_ADDR": "12, Avenue d'Alsace, 06240 Bea", "CODE": "200" }, "geometry": { "type": "Point", "coordinates": [ 7.417718, 43.738837 ] } }
,
{ "type": "Feature", "properties": { "ADRESSE": "12 AVENUE D' ALSACE", "CODE_POSTA": "06240", "VILLE": "BEAUSOLEIL", "PAYS": "France", "NOM": "Bac de regroupement", "DESCRIPTIO": "5934116 0660 GT\/VF", "LAT": "43.738832", "LNG": "7.417723", "ACCURACY": "8", "NBADRRETUR": "1", "ERROR_ADDR": "12, Avenue d'Alsace, 06240 Bea", "CODE": "200" }, "geometry": { "type": "Point", "coordinates": [ 7.417718, 43.738837 ] } }
,
{ "type": "Feature", "properties": { "ADRESSE": "1759F AVENUE DES ANCIENS COMBA", "CODE_POSTA": "06240", "VILLE": "BEAUSOLEIL", "PAYS": "France", "NOM": "Bac de regroupement", "DESCRIPTIO": "3060766 0340 CIJAO", "LAT": "0", "LNG": "0", "ACCURACY": "0", "NBADRRETUR": "0", "ERROR_ADDR": "Adresse inconnue :  Aucune pos", "CODE": "602" }, "geometry": { "type": "Point", "coordinates": [ -0.000000, 0.000020 ] } }
,
{ "type": "Feature", "properties": { "ADRESSE": "9001 AVENUE DES ANCIENS COMBAT", "CODE_POSTA": "06240", "VILLE": "BEAUSOLEIL", "PAYS": "France", "NOM": "Bac de regroupement", "DESCRIPTIO": "3720870 0340 CIVHO", "LAT": "0", "LNG": "0", "ACCURACY": "0", "NBADRRETUR": "0", "ERROR_ADDR": "Adresse inconnue :  Aucune pos", "CODE": "602" }, "geometry": { "type": "Point", "coordinates": [ -0.000000, 0.000020 ] } }
,
{ "type": "Feature", "properties": { "ADRESSE": "9001 AVENUE DES ANCIENS COMBAT", "CODE_POSTA": "06240", "VILLE": "BEAUSOLEIL", "PAYS": "France", "NOM": "Bac de regroupement", "DESCRIPTIO": "3060771 0660 CIBNO", "LAT": "0", "LNG": "0", "ACCURACY": "0", "NBADRRETUR": "0", "ERROR_ADDR": "Adresse inconnue :  Aucune pos", "CODE": "602" }, "geometry": { "type": "Point", "coordinates": [ -0.000000, 0.000020 ] } }
,
{ "type": "Feature", "properties": { "ADRESSE": "9001 AVENUE DES ANCIENS COMBAT", "CODE_POSTA": "06240", "VILLE": "BEAUSOLEIL", "PAYS": "France", "NOM": "Bac de regroupement", "DESCRIPTIO": "3060770 0660 CIJAO", "LAT": "0", "LNG": "0", "ACCURACY": "0", "NBADRRETUR": "0", "ERROR_ADDR": "Adresse inconnue :  Aucune pos", "CODE": "602" }, "geometry": { "type": "Point", "coordinates": [ -0.000000, 0.000020 ] } }
,
{ "type": "Feature", "properties": { "ADRESSE": "9001 AVENUE DES ANCIENS COMBAT", "CODE_POSTA": "06240", "VILLE": "BEAUSOLEIL", "PAYS": "France", "NOM": "Bac de regroupement", "DESCRIPTIO": "5341712 0660 GT\/VF", "LAT": "0", "LNG": "0", "ACCURACY": "0", "NBADRRETUR": "0", "ERROR_ADDR": "Adresse inconnue :  Aucune pos", "CODE": "602" }, "geometry": { "type": "Point", "coordinates": [ -0.000000, 0.000020 ] } }
,
{ "type": "Feature", "properties": { "ADRESSE": "9000 CHEMIN DE LA BORDINA", "CODE_POSTA": "06240", "VILLE": "BEAUSOLEIL", "PAYS": "France", "NOM": "Bac de regroupement", "DESCRIPTIO": "5606636 0340 CIVHO", "LAT": "43.742781", "LNG": "7.415298", "ACCURACY": "6", "NBADRRETUR": "1", "ERROR_ADDR": "Chemin de la Bordina, 06240 Be", "CODE": "200" }, "geometry": { "type": "Point", "coordinates": [ 7.415294, 43.742786 ] } }
,
{ "type": "Feature", "properties": { "ADRESSE": "9000 CHEMIN DE LA BORDINA", "CODE_POSTA": "06240", "VILLE": "BEAUSOLEIL", "PAYS": "France", "NOM": "Bac de regroupement", "DESCRIPTIO": "5109109 0340 GT\/VF", "LAT": "43.742781", "LNG": "7.415298", "ACCURACY": "6", "NBADRRETUR": "1", "ERROR_ADDR": "Chemin de la Bordina, 06240 Be", "CODE": "200" }, "geometry": { "type": "Point", "coordinates": [ 7.415294, 43.742786 ] } }
,
{ "type": "Feature", "properties": { "ADRESSE": "9000 CHEMIN DE LA BORDINA", "CODE_POSTA": "06240", "VILLE": "BEAUSOLEIL", "PAYS": "France", "NOM": "Bac de regroupement", "DESCRIPTIO": "5386283 0660 CIBNO", "LAT": "43.742781", "LNG": "7.415298", "ACCURACY": "6", "NBADRRETUR": "1", "ERROR_ADDR": "Chemin de la Bordina, 06240 Be", "CODE": "200" }, "geometry": { "type": "Point", "coordinates": [ 7.415294, 43.742786 ] } }
,
{ "type": "Feature", "properties": { "ADRESSE": "9000 CHEMIN DE LA BORDINA", "CODE_POSTA": "06240", "VILLE": "BEAUSOLEIL", "PAYS": "France", "NOM": "Bac de regroupement", "DESCRIPTIO": "5054100 0660 GT\/VF", "LAT": "43.742781", "LNG": "7.415298", "ACCURACY": "6", "NBADRRETUR": "1", "ERROR_ADDR": "Chemin de la Bordina, 06240 Be", "CODE": "200" }, "geometry": { "type": "Point", "coordinates": [ 7.415294, 43.742786 ] } }
,
{ "type": "Feature", "properties": { "ADRESSE": "9000 CHEMIN DE LA BORDINA", "CODE_POSTA": "06240", "VILLE": "BEAUSOLEIL", "PAYS": "France", "NOM": "Bac de regroupement", "DESCRIPTIO": "5054101 0660 GT\/VF", "LAT": "43.742781", "LNG": "7.415298", "ACCURACY": "6", "NBADRRETUR": "1", "ERROR_ADDR": "Chemin de la Bordina, 06240 Be", "CODE": "200" }, "geometry": { "type": "Point", "coordinates": [ 7.415294, 43.742786 ] } }
,
{ "type": "Feature", "properties": { "ADRESSE": "9000 CHEMIN DE LA BORDINA", "CODE_POSTA": "06240", "VILLE": "BEAUSOLEIL", "PAYS": "France", "NOM": "Bac de regroupement", "DESCRIPTIO": "5054117 0660 GT\/VF", "LAT": "43.742781", "LNG": "7.415298", "ACCURACY": "6", "NBADRRETUR": "1", "ERROR_ADDR": "Chemin de la Bordina, 06240 Be", "CODE": "200" }, "geometry": { "type": "Point", "coordinates": [ 7.415294, 43.742786 ] } }
,
{ "type": "Feature", "properties": { "ADRESSE": "9000 CHEMIN DE LA BORDINA", "CODE_POSTA": "06240", "VILLE": "BEAUSOLEIL", "PAYS": "France", "NOM": "Bac de regroupement", "DESCRIPTIO": "5543822 0770 JA OP", "LAT": "43.742781", "LNG": "7.415298", "ACCURACY": "6", "NBADRRETUR": "1", "ERROR_ADDR": "Chemin de la Bordina, 06240 Be", "CODE": "200" }, "geometry": { "type": "Point", "coordinates": [ 7.415294, 43.742786 ] } }
,
{ "type": "Feature", "properties": { "ADRESSE": "2F AVENUE DU CARNIER", "CODE_POSTA": "06240", "VILLE": "BEAUSOLEIL", "PAYS": "France", "NOM": "Bac de regroupement", "DESCRIPTIO": "6455967 0340 CIBNO", "LAT": "43.742516", "LNG": "7.42212", "ACCURACY": "8", "NBADRRETUR": "1", "ERROR_ADDR": "2, Avenue du Carnier, 06240 Be", "CODE": "200" }, "geometry": { "type": "Point", "coordinates": [ 7.422116, 43.742521 ] } }
,
{ "type": "Feature", "properties": { "ADRESSE": "2F AVENUE DU CARNIER", "CODE_POSTA": "06240", "VILLE": "BEAUSOLEIL", "PAYS": "France", "NOM": "Bac de regroupement", "DESCRIPTIO": "6455983 0340 VH OP", "LAT": "43.742516", "LNG": "7.42212", "ACCURACY": "8", "NBADRRETUR": "1", "ERROR_ADDR": "2, Avenue du Carnier, 06240 Be", "CODE": "200" }, "geometry": { "type": "Point", "coordinates": [ 7.422116, 43.742521 ] } }
,
{ "type": "Feature", "properties": { "ADRESSE": "2F AVENUE DU CARNIER", "CODE_POSTA": "06240", "VILLE": "BEAUSOLEIL", "PAYS": "France", "NOM": "Bac de regroupement", "DESCRIPTIO": "3060775 0660 CIJAO", "LAT": "43.742516", "LNG": "7.42212", "ACCURACY": "8", "NBADRRETUR": "1", "ERROR_ADDR": "2, Avenue du Carnier, 06240 Be", "CODE": "200" }, "geometry": { "type": "Point", "coordinates": [ 7.422116, 43.742521 ] } }
,
{ "type": "Feature", "properties": { "ADRESSE": "2F AVENUE DU CARNIER", "CODE_POSTA": "06240", "VILLE": "BEAUSOLEIL", "PAYS": "France", "NOM": "Bac de regroupement", "DESCRIPTIO": "5057050 0660 GT\/VF", "LAT": "43.742516", "LNG": "7.42212", "ACCURACY": "8", "NBADRRETUR": "1", "ERROR_ADDR": "2, Avenue du Carnier, 06240 Be", "CODE": "200" }, "geometry": { "type": "Point", "coordinates": [ 7.422116, 43.742521 ] } }
,
{ "type": "Feature", "properties": { "ADRESSE": "5 AVENUE DU CARNIER", "CODE_POSTA": "06240", "VILLE": "BEAUSOLEIL", "PAYS": "France", "NOM": "Bac de regroupement", "DESCRIPTIO": "3060776 0340 CIBNO", "LAT": "43.742646", "LNG": "7.4225", "ACCURACY": "8", "NBADRRETUR": "1", "ERROR_ADDR": "5, Avenue du Carnier, 06240 Be", "CODE": "200" }, "geometry": { "type": "Point", "coordinates": [ 7.422497, 43.742651 ] } }
,
{ "type": "Feature", "properties": { "ADRESSE": "5 AVENUE DU CARNIER", "CODE_POSTA": "06240", "VILLE": "BEAUSOLEIL", "PAYS": "France", "NOM": "Bac de regroupement", "DESCRIPTIO": "5081140 0660 GT\/VF", "LAT": "43.742646", "LNG": "7.4225", "ACCURACY": "8", "NBADRRETUR": "1", "ERROR_ADDR": "5, Avenue du Carnier, 06240 Be", "CODE": "200" }, "geometry": { "type": "Point", "coordinates": [ 7.422497, 43.742651 ] } }
,
{ "type": "Feature", "properties": { "ADRESSE": "6 AVENUE DU CARNIER", "CODE_POSTA": "06240", "VILLE": "BEAUSOLEIL", "PAYS": "France", "NOM": "Bac de regroupement", "DESCRIPTIO": "3060777 0660 CIJAO", "LAT": "43.743533", "LNG": "7.42391", "ACCURACY": "8", "NBADRRETUR": "1", "ERROR_ADDR": "6, Avenue du Carnier, 06240 Be", "CODE": "200" }, "geometry": { "type": "Point", "coordinates": [ 7.423905, 43.743539 ] } }
,
{ "type": "Feature", "properties": { "ADRESSE": "6 AVENUE DU CARNIER", "CODE_POSTA": "06240", "VILLE": "BEAUSOLEIL", "PAYS": "France", "NOM": "Bac de regroupement", "DESCRIPTIO": "5094260 0660 GT\/VF", "LAT": "43.743533", "LNG": "7.42391", "ACCURACY": "8", "NBADRRETUR": "1", "ERROR_ADDR": "6, Avenue du Carnier, 06240 Be", "CODE": "200" }, "geometry": { "type": "Point", "coordinates": [ 7.423905, 43.743539 ] } }
,
{ "type": "Feature", "properties": { "ADRESSE": "18 AVENUE DU CARNIER", "CODE_POSTA": "06240", "VILLE": "BEAUSOLEIL", "PAYS": "France", "NOM": "Bac de regroupement", "DESCRIPTIO": "3060778 0660 CIBNO", "LAT": "43.744287", "LNG": "7.425346", "ACCURACY": "8", "NBADRRETUR": "1", "ERROR_ADDR": "18, Avenue du Carnier, 06240 B", "CODE": "200" }, "geometry": { "type": "Point", "coordinates": [ 7.425342, 43.744292 ] } }
,
{ "type": "Feature", "properties": { "ADRESSE": "35F AVENUE DU CARNIER", "CODE_POSTA": "06240", "VILLE": "BEAUSOLEIL", "PAYS": "France", "NOM": "Bac de regroupement", "DESCRIPTIO": "3720354 0340 BN OP", "LAT": "43.744662", "LNG": "7.426286", "ACCURACY": "8", "NBADRRETUR": "1", "ERROR_ADDR": "35, Avenue du Carnier, 06240 B", "CODE": "200" }, "geometry": { "type": "Point", "coordinates": [ 7.426282, 43.744667 ] } }
,
{ "type": "Feature", "properties": { "ADRESSE": "35F AVENUE DU CARNIER", "CODE_POSTA": "06240", "VILLE": "BEAUSOLEIL", "PAYS": "France", "NOM": "Bac de regroupement", "DESCRIPTIO": "6449052 0340 GT\/VF", "LAT": "43.744662", "LNG": "7.426286", "ACCURACY": "8", "NBADRRETUR": "1", "ERROR_ADDR": "35, Avenue du Carnier, 06240 B", "CODE": "200" }, "geometry": { "type": "Point", "coordinates": [ 7.426282, 43.744667 ] } }
,
{ "type": "Feature", "properties": { "ADRESSE": "35F AVENUE DU CARNIER", "CODE_POSTA": "06240", "VILLE": "BEAUSOLEIL", "PAYS": "France", "NOM": "Bac de regroupement", "DESCRIPTIO": "6407399 0340 VH OP", "LAT": "43.744662", "LNG": "7.426286", "ACCURACY": "8", "NBADRRETUR": "1", "ERROR_ADDR": "35, Avenue du Carnier, 06240 B", "CODE": "200" }, "geometry": { "type": "Point", "coordinates": [ 7.426282, 43.744667 ] } }
,
{ "type": "Feature", "properties": { "ADRESSE": "35F AVENUE DU CARNIER", "CODE_POSTA": "06240", "VILLE": "BEAUSOLEIL", "PAYS": "France", "NOM": "Bac de regroupement", "DESCRIPTIO": "5500327 0660 GT\/VF", "LAT": "43.744662", "LNG": "7.426286", "ACCURACY": "8", "NBADRRETUR": "1", "ERROR_ADDR": "35, Avenue du Carnier, 06240 B", "CODE": "200" }, "geometry": { "type": "Point", "coordinates": [ 7.426282, 43.744667 ] } }
,
{ "type": "Feature", "properties": { "ADRESSE": "10 CHEMIN DU CASTELLARET", "CODE_POSTA": "06240", "VILLE": "BEAUSOLEIL", "PAYS": "France", "NOM": "Bac de regroupement", "DESCRIPTIO": "3060781 0340 CIBNO", "LAT": "43.737621", "LNG": "7.416422", "ACCURACY": "8", "NBADRRETUR": "1", "ERROR_ADDR": "10, Chemin du Castellaret, 062", "CODE": "200" }, "geometry": { "type": "Point", "coordinates": [ 7.416417, 43.737626 ] } }
,
{ "type": "Feature", "properties": { "ADRESSE": "10 CHEMIN DU CASTELLARET", "CODE_POSTA": "06240", "VILLE": "BEAUSOLEIL", "PAYS": "France", "NOM": "Bac de regroupement", "DESCRIPTIO": "3060782 0340 CIVHO", "LAT": "43.737621", "LNG": "7.416422", "ACCURACY": "8", "NBADRRETUR": "1", "ERROR_ADDR": "10, Chemin du Castellaret, 062", "CODE": "200" }, "geometry": { "type": "Point", "coordinates": [ 7.416417, 43.737626 ] } }
,
{ "type": "Feature", "properties": { "ADRESSE": "10 CHEMIN DU CASTELLARET", "CODE_POSTA": "06240", "VILLE": "BEAUSOLEIL", "PAYS": "France", "NOM": "Bac de regroupement", "DESCRIPTIO": "3060783 0660 CIJAO", "LAT": "43.737621", "LNG": "7.416422", "ACCURACY": "8", "NBADRRETUR": "1", "ERROR_ADDR": "10, Chemin du Castellaret, 062", "CODE": "200" }, "geometry": { "type": "Point", "coordinates": [ 7.416417, 43.737626 ] } }
,
{ "type": "Feature", "properties": { "ADRESSE": "10 CHEMIN DU CASTELLARET", "CODE_POSTA": "06240", "VILLE": "BEAUSOLEIL", "PAYS": "France", "NOM": "Bac de regroupement", "DESCRIPTIO": "5114558 0660 GT\/VF", "LAT": "43.737621", "LNG": "7.416422", "ACCURACY": "8", "NBADRRETUR": "1", "ERROR_ADDR": "10, Chemin du Castellaret, 062", "CODE": "200" }, "geometry": { "type": "Point", "coordinates": [ 7.416417, 43.737626 ] } }
,
{ "type": "Feature", "properties": { "ADRESSE": "3 RUE DE CASTILLON", "CODE_POSTA": "06240", "VILLE": "BEAUSOLEIL", "PAYS": "France", "NOM": "Bac de regroupement", "DESCRIPTIO": "3468296 0340 CIVHO", "LAT": "43.736516", "LNG": "7.414707", "ACCURACY": "8", "NBADRRETUR": "1", "ERROR_ADDR": "3, Rue de Castillon, 06240 Bea", "CODE": "200" }, "geometry": { "type": "Point", "coordinates": [ 7.414702, 43.736521 ] } }
,
{ "type": "Feature", "properties": { "ADRESSE": "3 RUE DE CASTILLON", "CODE_POSTA": "06240", "VILLE": "BEAUSOLEIL", "PAYS": "France", "NOM": "Bac de regroupement", "DESCRIPTIO": "3060789 0660 CIBNO", "LAT": "43.736516", "LNG": "7.414707", "ACCURACY": "8", "NBADRRETUR": "1", "ERROR_ADDR": "3, Rue de Castillon, 06240 Bea", "CODE": "200" }, "geometry": { "type": "Point", "coordinates": [ 7.414702, 43.736521 ] } }
,
{ "type": "Feature", "properties": { "ADRESSE": "3 RUE DE CASTILLON", "CODE_POSTA": "06240", "VILLE": "BEAUSOLEIL", "PAYS": "France", "NOM": "Bac de regroupement", "DESCRIPTIO": "3060788 0660 CIJAO", "LAT": "43.736516", "LNG": "7.414707", "ACCURACY": "8", "NBADRRETUR": "1", "ERROR_ADDR": "3, Rue de Castillon, 06240 Bea", "CODE": "200" }, "geometry": { "type": "Point", "coordinates": [ 7.414702, 43.736521 ] } }
,
{ "type": "Feature", "properties": { "ADRESSE": "3 RUE DE CASTILLON", "CODE_POSTA": "06240", "VILLE": "BEAUSOLEIL", "PAYS": "France", "NOM": "Bac de regroupement", "DESCRIPTIO": "5094293 0660 GT\/VF", "LAT": "43.736516", "LNG": "7.414707", "ACCURACY": "8", "NBADRRETUR": "1", "ERROR_ADDR": "3, Rue de Castillon, 06240 Bea", "CODE": "200" }, "geometry": { "type": "Point", "coordinates": [ 7.414702, 43.736521 ] } }
,
{ "type": "Feature", "properties": { "ADRESSE": "11F AVENUE DU GENERAL LECLERC", "CODE_POSTA": "06240", "VILLE": "BEAUSOLEIL", "PAYS": "France", "NOM": "Bac de regroupement", "DESCRIPTIO": "5761378 0660 CIBNO", "LAT": "43.742502", "LNG": "7.426472", "ACCURACY": "8", "NBADRRETUR": "1", "ERROR_ADDR": "11, Boulevard du Général Lecle", "CODE": "200" }, "geometry": { "type": "Point", "coordinates": [ 7.426467, 43.742507 ] } }
,
{ "type": "Feature", "properties": { "ADRESSE": "11F AVENUE DU GENERAL LECLERC", "CODE_POSTA": "06240", "VILLE": "BEAUSOLEIL", "PAYS": "France", "NOM": "Bac de regroupement", "DESCRIPTIO": "5531277 0660 GT\/VF", "LAT": "43.742502", "LNG": "7.426472", "ACCURACY": "8", "NBADRRETUR": "1", "ERROR_ADDR": "11, Boulevard du Général Lecle", "CODE": "200" }, "geometry": { "type": "Point", "coordinates": [ 7.426467, 43.742507 ] } }
,
{ "type": "Feature", "properties": { "ADRESSE": "11F AVENUE DU GENERAL LECLERC", "CODE_POSTA": "06240", "VILLE": "BEAUSOLEIL", "PAYS": "France", "NOM": "Bac de regroupement", "DESCRIPTIO": "5909532 0660 GT\/VF", "LAT": "43.742502", "LNG": "7.426472", "ACCURACY": "8", "NBADRRETUR": "1", "ERROR_ADDR": "11, Boulevard du Général Lecle", "CODE": "200" }, "geometry": { "type": "Point", "coordinates": [ 7.426467, 43.742507 ] } }
,
{ "type": "Feature", "properties": { "ADRESSE": "15F AVENUE DU GENERAL LECLERC", "CODE_POSTA": "06240", "VILLE": "BEAUSOLEIL", "PAYS": "France", "NOM": "Bac de regroupement", "DESCRIPTIO": "3754296 0340 BN OP", "LAT": "43.742909", "LNG": "7.426831", "ACCURACY": "8", "NBADRRETUR": "1", "ERROR_ADDR": "15, Boulevard du Général Lecle", "CODE": "200" }, "geometry": { "type": "Point", "coordinates": [ 7.426826, 43.742915 ] } }
,
{ "type": "Feature", "properties": { "ADRESSE": "15F AVENUE DU GENERAL LECLERC", "CODE_POSTA": "06240", "VILLE": "BEAUSOLEIL", "PAYS": "France", "NOM": "Bac de regroupement", "DESCRIPTIO": "3827506 0340 CIVHO", "LAT": "43.742909", "LNG": "7.426831", "ACCURACY": "8", "NBADRRETUR": "1", "ERROR_ADDR": "15, Boulevard du Général Lecle", "CODE": "200" }, "geometry": { "type": "Point", "coordinates": [ 7.426826, 43.742915 ] } }
,
{ "type": "Feature", "properties": { "ADRESSE": "25 AVENUE DU GENERAL LECLERC", "CODE_POSTA": "06240", "VILLE": "BEAUSOLEIL", "PAYS": "France", "NOM": "Bac de regroupement", "DESCRIPTIO": "3633034 0340 BN OP", "LAT": "43.743328", "LNG": "7.427213", "ACCURACY": "8", "NBADRRETUR": "1", "ERROR_ADDR": "25, Boulevard du Général Lecle", "CODE": "200" }, "geometry": { "type": "Point", "coordinates": [ 7.427208, 43.743334 ] } }
,
{ "type": "Feature", "properties": { "ADRESSE": "25 AVENUE DU GENERAL LECLERC", "CODE_POSTA": "06240", "VILLE": "BEAUSOLEIL", "PAYS": "France", "NOM": "Bac de regroupement", "DESCRIPTIO": "3700718 0340 CIVHO", "LAT": "43.743328", "LNG": "7.427213", "ACCURACY": "8", "NBADRRETUR": "1", "ERROR_ADDR": "25, Boulevard du Général Lecle", "CODE": "200" }, "geometry": { "type": "Point", "coordinates": [ 7.427208, 43.743334 ] } }
,
{ "type": "Feature", "properties": { "ADRESSE": "25 AVENUE DU GENERAL LECLERC", "CODE_POSTA": "06240", "VILLE": "BEAUSOLEIL", "PAYS": "France", "NOM": "Bac de regroupement", "DESCRIPTIO": "5094720 0660 GT\/VF", "LAT": "43.743328", "LNG": "7.427213", "ACCURACY": "8", "NBADRRETUR": "1", "ERROR_ADDR": "25, Boulevard du Général Lecle", "CODE": "200" }, "geometry": { "type": "Point", "coordinates": [ 7.427208, 43.743334 ] } }
,
{ "type": "Feature", "properties": { "ADRESSE": "25 AVENUE DU GENERAL LECLERC", "CODE_POSTA": "06240", "VILLE": "BEAUSOLEIL", "PAYS": "France", "NOM": "Bac de regroupement", "DESCRIPTIO": "5761524 0660 GT\/VF", "LAT": "43.743328", "LNG": "7.427213", "ACCURACY": "8", "NBADRRETUR": "1", "ERROR_ADDR": "25, Boulevard du Général Lecle", "CODE": "200" }, "geometry": { "type": "Point", "coordinates": [ 7.427208, 43.743334 ] } }
,
{ "type": "Feature", "properties": { "ADRESSE": "9 BOULEVARD GUYNEMER", "CODE_POSTA": "06240", "VILLE": "BEAUSOLEIL", "PAYS": "France", "NOM": "Bac de regroupement", "DESCRIPTIO": "3452960 0340 CIVHO", "LAT": "43.74729", "LNG": "7.427717", "ACCURACY": "8", "NBADRRETUR": "1", "ERROR_ADDR": "9, Boulevard Guynemer, 06240 B", "CODE": "200" }, "geometry": { "type": "Point", "coordinates": [ 7.427712, 43.747295 ] } }
,
{ "type": "Feature", "properties": { "ADRESSE": "9 BOULEVARD GUYNEMER", "CODE_POSTA": "06240", "VILLE": "BEAUSOLEIL", "PAYS": "France", "NOM": "Bac de regroupement", "DESCRIPTIO": "3353112 0660 CIBNO", "LAT": "43.74729", "LNG": "7.427717", "ACCURACY": "8", "NBADRRETUR": "1", "ERROR_ADDR": "9, Boulevard Guynemer, 06240 B", "CODE": "200" }, "geometry": { "type": "Point", "coordinates": [ 7.427712, 43.747295 ] } }
,
{ "type": "Feature", "properties": { "ADRESSE": "9 BOULEVARD GUYNEMER", "CODE_POSTA": "06240", "VILLE": "BEAUSOLEIL", "PAYS": "France", "NOM": "Bac de regroupement", "DESCRIPTIO": "5549112 0660 GT\/VF", "LAT": "43.74729", "LNG": "7.427717", "ACCURACY": "8", "NBADRRETUR": "1", "ERROR_ADDR": "9, Boulevard Guynemer, 06240 B", "CODE": "200" }, "geometry": { "type": "Point", "coordinates": [ 7.427712, 43.747295 ] } }
,
{ "type": "Feature", "properties": { "ADRESSE": "9 BOULEVARD GUYNEMER", "CODE_POSTA": "06240", "VILLE": "BEAUSOLEIL", "PAYS": "France", "NOM": "Bac de regroupement", "DESCRIPTIO": "6058824 0660 JA OP", "LAT": "43.74729", "LNG": "7.427717", "ACCURACY": "8", "NBADRRETUR": "1", "ERROR_ADDR": "9, Boulevard Guynemer, 06240 B", "CODE": "200" }, "geometry": { "type": "Point", "coordinates": [ 7.427712, 43.747295 ] } }
,
{ "type": "Feature", "properties": { "ADRESSE": "24 BOULEVARD GUYNEMER", "CODE_POSTA": "06240", "VILLE": "BEAUSOLEIL", "PAYS": "France", "NOM": "Bac de regroupement", "DESCRIPTIO": "3060808 0340 CIBNO", "LAT": "43.747477", "LNG": "7.429104", "ACCURACY": "8", "NBADRRETUR": "1", "ERROR_ADDR": "24, Boulevard Guynemer, 06240", "CODE": "200" }, "geometry": { "type": "Point", "coordinates": [ 7.429099, 43.747482 ] } }
,
{ "type": "Feature", "properties": { "ADRESSE": "24 BOULEVARD GUYNEMER", "CODE_POSTA": "06240", "VILLE": "BEAUSOLEIL", "PAYS": "France", "NOM": "Bac de regroupement", "DESCRIPTIO": "3494792 0340 CIJAO", "LAT": "43.747477", "LNG": "7.429104", "ACCURACY": "8", "NBADRRETUR": "1", "ERROR_ADDR": "24, Boulevard Guynemer, 06240", "CODE": "200" }, "geometry": { "type": "Point", "coordinates": [ 7.429099, 43.747482 ] } }
,
{ "type": "Feature", "properties": { "ADRESSE": "24 BOULEVARD GUYNEMER", "CODE_POSTA": "06240", "VILLE": "BEAUSOLEIL", "PAYS": "France", "NOM": "Bac de regroupement", "DESCRIPTIO": "6418124 0340 VH OP", "LAT": "43.747477", "LNG": "7.429104", "ACCURACY": "8", "NBADRRETUR": "1", "ERROR_ADDR": "24, Boulevard Guynemer, 06240", "CODE": "200" }, "geometry": { "type": "Point", "coordinates": [ 7.429099, 43.747482 ] } }
,
{ "type": "Feature", "properties": { "ADRESSE": "24 BOULEVARD GUYNEMER", "CODE_POSTA": "06240", "VILLE": "BEAUSOLEIL", "PAYS": "France", "NOM": "Bac de regroupement", "DESCRIPTIO": "5441151 0660 GT\/VF", "LAT": "43.747477", "LNG": "7.429104", "ACCURACY": "8", "NBADRRETUR": "1", "ERROR_ADDR": "24, Boulevard Guynemer, 06240", "CODE": "200" }, "geometry": { "type": "Point", "coordinates": [ 7.429099, 43.747482 ] } }
,
{ "type": "Feature", "properties": { "ADRESSE": "24 BOULEVARD GUYNEMER", "CODE_POSTA": "06240", "VILLE": "BEAUSOLEIL", "PAYS": "France", "NOM": "Bac de regroupement", "DESCRIPTIO": "5465878 0660 GT\/VF", "LAT": "43.747477", "LNG": "7.429104", "ACCURACY": "8", "NBADRRETUR": "1", "ERROR_ADDR": "24, Boulevard Guynemer, 06240", "CODE": "200" }, "geometry": { "type": "Point", "coordinates": [ 7.429099, 43.747482 ] } }
,
{ "type": "Feature", "properties": { "ADRESSE": "27 BOULEVARD GUYNEMER", "CODE_POSTA": "06240", "VILLE": "BEAUSOLEIL", "PAYS": "France", "NOM": "Bac de regroupement", "DESCRIPTIO": "3060810 0340 CIBNO", "LAT": "43.750521", "LNG": "7.430144", "ACCURACY": "6", "NBADRRETUR": "1", "ERROR_ADDR": "Boulevard Guynemer, 06240 Beau", "CODE": "200" }, "geometry": { "type": "Point", "coordinates": [ 7.430139, 43.750526 ] } }
,
{ "type": "Feature", "properties": { "ADRESSE": "27 BOULEVARD GUYNEMER", "CODE_POSTA": "06240", "VILLE": "BEAUSOLEIL", "PAYS": "France", "NOM": "Bac de regroupement", "DESCRIPTIO": "3353116 0660 CIJAO", "LAT": "43.750521", "LNG": "7.430144", "ACCURACY": "6", "NBADRRETUR": "1", "ERROR_ADDR": "Boulevard Guynemer, 06240 Beau", "CODE": "200" }, "geometry": { "type": "Point", "coordinates": [ 7.430139, 43.750526 ] } }
,
{ "type": "Feature", "properties": { "ADRESSE": "27 BOULEVARD GUYNEMER", "CODE_POSTA": "06240", "VILLE": "BEAUSOLEIL", "PAYS": "France", "NOM": "Bac de regroupement", "DESCRIPTIO": "5094748 0660 GT\/VF", "LAT": "43.750521", "LNG": "7.430144", "ACCURACY": "6", "NBADRRETUR": "1", "ERROR_ADDR": "Boulevard Guynemer, 06240 Beau", "CODE": "200" }, "geometry": { "type": "Point", "coordinates": [ 7.430139, 43.750526 ] } }
,
{ "type": "Feature", "properties": { "ADRESSE": "37 BOULEVARD GUYNEMER", "CODE_POSTA": "06240", "VILLE": "BEAUSOLEIL", "PAYS": "France", "NOM": "Bac de regroupement", "DESCRIPTIO": "3453088 0340 CIJAO", "LAT": "43.749765", "LNG": "7.428687", "ACCURACY": "8", "NBADRRETUR": "1", "ERROR_ADDR": "37, Boulevard Guynemer, 06240", "CODE": "200" }, "geometry": { "type": "Point", "coordinates": [ 7.428683, 43.749769 ] } }
,
{ "type": "Feature", "properties": { "ADRESSE": "37 BOULEVARD GUYNEMER", "CODE_POSTA": "06240", "VILLE": "BEAUSOLEIL", "PAYS": "France", "NOM": "Bac de regroupement", "DESCRIPTIO": "3060812 0340 CIVHO", "LAT": "43.749765", "LNG": "7.428687", "ACCURACY": "8", "NBADRRETUR": "1", "ERROR_ADDR": "37, Boulevard Guynemer, 06240", "CODE": "200" }, "geometry": { "type": "Point", "coordinates": [ 7.428683, 43.749769 ] } }
,
{ "type": "Feature", "properties": { "ADRESSE": "37 BOULEVARD GUYNEMER", "CODE_POSTA": "06240", "VILLE": "BEAUSOLEIL", "PAYS": "France", "NOM": "Bac de regroupement", "DESCRIPTIO": "5094751 0660 GT\/VF", "LAT": "43.749765", "LNG": "7.428687", "ACCURACY": "8", "NBADRRETUR": "1", "ERROR_ADDR": "37, Boulevard Guynemer, 06240", "CODE": "200" }, "geometry": { "type": "Point", "coordinates": [ 7.428683, 43.749769 ] } }
,
{ "type": "Feature", "properties": { "ADRESSE": "41F BOULEVARD GUYNEMER", "CODE_POSTA": "06240", "VILLE": "BEAUSOLEIL", "PAYS": "France", "NOM": "Bac de regroupement", "DESCRIPTIO": "3181375 0340 CIBNO", "LAT": "43.750541", "LNG": "7.427922", "ACCURACY": "8", "NBADRRETUR": "1", "ERROR_ADDR": "41, Boulevard Guynemer, 06240", "CODE": "200" }, "geometry": { "type": "Point", "coordinates": [ 7.427918, 43.750546 ] } }
,
{ "type": "Feature", "properties": { "ADRESSE": "41F BOULEVARD GUYNEMER", "CODE_POSTA": "06240", "VILLE": "BEAUSOLEIL", "PAYS": "France", "NOM": "Bac de regroupement", "DESCRIPTIO": "3649000 0340 CIVHO", "LAT": "43.750541", "LNG": "7.427922", "ACCURACY": "8", "NBADRRETUR": "1", "ERROR_ADDR": "41, Boulevard Guynemer, 06240", "CODE": "200" }, "geometry": { "type": "Point", "coordinates": [ 7.427918, 43.750546 ] } }
,
{ "type": "Feature", "properties": { "ADRESSE": "41F BOULEVARD GUYNEMER", "CODE_POSTA": "06240", "VILLE": "BEAUSOLEIL", "PAYS": "France", "NOM": "Bac de regroupement", "DESCRIPTIO": "3060813 0660 CIJAO", "LAT": "43.750541", "LNG": "7.427922", "ACCURACY": "8", "NBADRRETUR": "1", "ERROR_ADDR": "41, Boulevard Guynemer, 06240", "CODE": "200" }, "geometry": { "type": "Point", "coordinates": [ 7.427918, 43.750546 ] } }
,
{ "type": "Feature", "properties": { "ADRESSE": "41F BOULEVARD GUYNEMER", "CODE_POSTA": "06240", "VILLE": "BEAUSOLEIL", "PAYS": "France", "NOM": "Bac de regroupement", "DESCRIPTIO": "5094756 0660 GT\/VF", "LAT": "43.750541", "LNG": "7.427922", "ACCURACY": "8", "NBADRRETUR": "1", "ERROR_ADDR": "41, Boulevard Guynemer, 06240", "CODE": "200" }, "geometry": { "type": "Point", "coordinates": [ 7.427918, 43.750546 ] } }
,
{ "type": "Feature", "properties": { "ADRESSE": "47 BOULEVARD GUYNEMER", "CODE_POSTA": "06240", "VILLE": "BEAUSOLEIL", "PAYS": "France", "NOM": "Bac de regroupement", "DESCRIPTIO": "3060815 0340 CIVHO", "LAT": "43.750326", "LNG": "7.431374", "ACCURACY": "8", "NBADRRETUR": "1", "ERROR_ADDR": "47b, Boulevard Guynemer, 06240", "CODE": "200" }, "geometry": { "type": "Point", "coordinates": [ 7.431370, 43.750332 ] } }
,
{ "type": "Feature", "properties": { "ADRESSE": "47 BOULEVARD GUYNEMER", "CODE_POSTA": "06240", "VILLE": "BEAUSOLEIL", "PAYS": "France", "NOM": "Bac de regroupement", "DESCRIPTIO": "3060816 0660 CIJAO", "LAT": "43.750326", "LNG": "7.431374", "ACCURACY": "8", "NBADRRETUR": "1", "ERROR_ADDR": "47b, Boulevard Guynemer, 06240", "CODE": "200" }, "geometry": { "type": "Point", "coordinates": [ 7.431370, 43.750332 ] } }
,
{ "type": "Feature", "properties": { "ADRESSE": "47 BOULEVARD GUYNEMER", "CODE_POSTA": "06240", "VILLE": "BEAUSOLEIL", "PAYS": "France", "NOM": "Bac de regroupement", "DESCRIPTIO": "5094760 0660 GT\/VF", "LAT": "43.750326", "LNG": "7.431374", "ACCURACY": "8", "NBADRRETUR": "1", "ERROR_ADDR": "47b, Boulevard Guynemer, 06240", "CODE": "200" }, "geometry": { "type": "Point", "coordinates": [ 7.431370, 43.750332 ] } }
,
{ "type": "Feature", "properties": { "ADRESSE": "72 BOULEVARD GUYNEMER", "CODE_POSTA": "06240", "VILLE": "BEAUSOLEIL", "PAYS": "France", "NOM": "Bac de regroupement", "DESCRIPTIO": "3060831 0340 CIJAO", "LAT": "43.750321", "LNG": "7.432096", "ACCURACY": "8", "NBADRRETUR": "1", "ERROR_ADDR": "72, Boulevard Guynemer, 06240", "CODE": "200" }, "geometry": { "type": "Point", "coordinates": [ 7.432092, 43.750327 ] } }
,
{ "type": "Feature", "properties": { "ADRESSE": "78 BOULEVARD GUYNEMER", "CODE_POSTA": "06240", "VILLE": "BEAUSOLEIL", "PAYS": "France", "NOM": "Bac de regroupement", "DESCRIPTIO": "3706782 0340 CIVHO", "LAT": "43.750894", "LNG": "7.432836", "ACCURACY": "8", "NBADRRETUR": "1", "ERROR_ADDR": "78, Boulevard Guynemer, 06240", "CODE": "200" }, "geometry": { "type": "Point", "coordinates": [ 7.432832, 43.750899 ] } }
,
{ "type": "Feature", "properties": { "ADRESSE": "78 BOULEVARD GUYNEMER", "CODE_POSTA": "06240", "VILLE": "BEAUSOLEIL", "PAYS": "France", "NOM": "Bac de regroupement", "DESCRIPTIO": "3060835 0660 CIBNO", "LAT": "43.750894", "LNG": "7.432836", "ACCURACY": "8", "NBADRRETUR": "1", "ERROR_ADDR": "78, Boulevard Guynemer, 06240", "CODE": "200" }, "geometry": { "type": "Point", "coordinates": [ 7.432832, 43.750899 ] } }
,
{ "type": "Feature", "properties": { "ADRESSE": "78 BOULEVARD GUYNEMER", "CODE_POSTA": "06240", "VILLE": "BEAUSOLEIL", "PAYS": "France", "NOM": "Bac de regroupement", "DESCRIPTIO": "3060834 0660 CIJAO", "LAT": "43.750894", "LNG": "7.432836", "ACCURACY": "8", "NBADRRETUR": "1", "ERROR_ADDR": "78, Boulevard Guynemer, 06240", "CODE": "200" }, "geometry": { "type": "Point", "coordinates": [ 7.432832, 43.750899 ] } }
,
{ "type": "Feature", "properties": { "ADRESSE": "78 BOULEVARD GUYNEMER", "CODE_POSTA": "06240", "VILLE": "BEAUSOLEIL", "PAYS": "France", "NOM": "Bac de regroupement", "DESCRIPTIO": "5549476 0660 GT\/VF", "LAT": "43.750894", "LNG": "7.432836", "ACCURACY": "8", "NBADRRETUR": "1", "ERROR_ADDR": "78, Boulevard Guynemer, 06240", "CODE": "200" }, "geometry": { "type": "Point", "coordinates": [ 7.432832, 43.750899 ] } }
,
{ "type": "Feature", "properties": { "ADRESSE": "90 BOULEVARD GUYNEMER", "CODE_POSTA": "06240", "VILLE": "BEAUSOLEIL", "PAYS": "France", "NOM": "Bac de regroupement", "DESCRIPTIO": "3060836 0340 CIVHO", "LAT": "43.752588", "LNG": "7.433592", "ACCURACY": "8", "NBADRRETUR": "1", "ERROR_ADDR": "90, Boulevard Guynemer, 06240", "CODE": "200" }, "geometry": { "type": "Point", "coordinates": [ 7.433586, 43.752593 ] } }
,
{ "type": "Feature", "properties": { "ADRESSE": "90 BOULEVARD GUYNEMER", "CODE_POSTA": "06240", "VILLE": "BEAUSOLEIL", "PAYS": "France", "NOM": "Bac de regroupement", "DESCRIPTIO": "3060838 0660 CIBNO", "LAT": "43.752588", "LNG": "7.433592", "ACCURACY": "8", "NBADRRETUR": "1", "ERROR_ADDR": "90, Boulevard Guynemer, 06240", "CODE": "200" }, "geometry": { "type": "Point", "coordinates": [ 7.433586, 43.752593 ] } }
,
{ "type": "Feature", "properties": { "ADRESSE": "90 BOULEVARD GUYNEMER", "CODE_POSTA": "06240", "VILLE": "BEAUSOLEIL", "PAYS": "France", "NOM": "Bac de regroupement", "DESCRIPTIO": "3060837 0660 CIJAO", "LAT": "43.752588", "LNG": "7.433592", "ACCURACY": "8", "NBADRRETUR": "1", "ERROR_ADDR": "90, Boulevard Guynemer, 06240", "CODE": "200" }, "geometry": { "type": "Point", "coordinates": [ 7.433586, 43.752593 ] } }
,
{ "type": "Feature", "properties": { "ADRESSE": "90 BOULEVARD GUYNEMER", "CODE_POSTA": "06240", "VILLE": "BEAUSOLEIL", "PAYS": "France", "NOM": "Bac de regroupement", "DESCRIPTIO": "5094775 0660 GT\/VF", "LAT": "43.752588", "LNG": "7.433592", "ACCURACY": "8", "NBADRRETUR": "1", "ERROR_ADDR": "90, Boulevard Guynemer, 06240", "CODE": "200" }, "geometry": { "type": "Point", "coordinates": [ 7.433586, 43.752593 ] } }
,
{ "type": "Feature", "properties": { "ADRESSE": "94 BOULEVARD GUYNEMER", "CODE_POSTA": "06240", "VILLE": "BEAUSOLEIL", "PAYS": "France", "NOM": "Bac de regroupement", "DESCRIPTIO": "3060839 0340 CIBNO", "LAT": "43.753152", "LNG": "7.433258", "ACCURACY": "8", "NBADRRETUR": "1", "ERROR_ADDR": "94, Boulevard Guynemer, 06240", "CODE": "200" }, "geometry": { "type": "Point", "coordinates": [ 7.433253, 43.753157 ] } }
,
{ "type": "Feature", "properties": { "ADRESSE": "94 BOULEVARD GUYNEMER", "CODE_POSTA": "06240", "VILLE": "BEAUSOLEIL", "PAYS": "France", "NOM": "Bac de regroupement", "DESCRIPTIO": "3060840 0340 CIVHO", "LAT": "43.753152", "LNG": "7.433258", "ACCURACY": "8", "NBADRRETUR": "1", "ERROR_ADDR": "94, Boulevard Guynemer, 06240", "CODE": "200" }, "geometry": { "type": "Point", "coordinates": [ 7.433253, 43.753157 ] } }
,
{ "type": "Feature", "properties": { "ADRESSE": "94 BOULEVARD GUYNEMER", "CODE_POSTA": "06240", "VILLE": "BEAUSOLEIL", "PAYS": "France", "NOM": "Bac de regroupement", "DESCRIPTIO": "5034856 0340 GT\/VF", "LAT": "43.753152", "LNG": "7.433258", "ACCURACY": "8", "NBADRRETUR": "1", "ERROR_ADDR": "94, Boulevard Guynemer, 06240", "CODE": "200" }, "geometry": { "type": "Point", "coordinates": [ 7.433253, 43.753157 ] } }
,
{ "type": "Feature", "properties": { "ADRESSE": "3 RUE JEAN BOUIN", "CODE_POSTA": "06240", "VILLE": "BEAUSOLEIL", "PAYS": "France", "NOM": "Bac de regroupement", "DESCRIPTIO": "5858745 0340 VH OP", "LAT": "43.737809", "LNG": "7.415721", "ACCURACY": "8", "NBADRRETUR": "1", "ERROR_ADDR": "3, Rue Jean Bouin, 06240 Beaus", "CODE": "200" }, "geometry": { "type": "Point", "coordinates": [ 7.415717, 43.737815 ] } }
,
{ "type": "Feature", "properties": { "ADRESSE": "3 RUE JEAN BOUIN", "CODE_POSTA": "06240", "VILLE": "BEAUSOLEIL", "PAYS": "France", "NOM": "Bac de regroupement", "DESCRIPTIO": "3060843 0660 CIBNO", "LAT": "43.737809", "LNG": "7.415721", "ACCURACY": "8", "NBADRRETUR": "1", "ERROR_ADDR": "3, Rue Jean Bouin, 06240 Beaus", "CODE": "200" }, "geometry": { "type": "Point", "coordinates": [ 7.415717, 43.737815 ] } }
,
{ "type": "Feature", "properties": { "ADRESSE": "3 RUE JEAN BOUIN", "CODE_POSTA": "06240", "VILLE": "BEAUSOLEIL", "PAYS": "France", "NOM": "Bac de regroupement", "DESCRIPTIO": "3060842 0660 CIJAO", "LAT": "43.737809", "LNG": "7.415721", "ACCURACY": "8", "NBADRRETUR": "1", "ERROR_ADDR": "3, Rue Jean Bouin, 06240 Beaus", "CODE": "200" }, "geometry": { "type": "Point", "coordinates": [ 7.415717, 43.737815 ] } }
,
{ "type": "Feature", "properties": { "ADRESSE": "14F RUE JEAN BOUIN", "CODE_POSTA": "06240", "VILLE": "BEAUSOLEIL", "PAYS": "France", "NOM": "Bac de regroupement", "DESCRIPTIO": "5094797 0660 GT\/VF", "LAT": "43.736976", "LNG": "7.415737", "ACCURACY": "8", "NBADRRETUR": "1", "ERROR_ADDR": "14, Rue Jean Bouin, 06240 Beau", "CODE": "200" }, "geometry": { "type": "Point", "coordinates": [ 7.415733, 43.736982 ] } }
,
{ "type": "Feature", "properties": { "ADRESSE": "11 RUE JEAN JAURES", "CODE_POSTA": "06240", "VILLE": "BEAUSOLEIL", "PAYS": "France", "NOM": "Bac de regroupement", "DESCRIPTIO": "3060849 0340 CIBNO", "LAT": "43.737884", "LNG": "7.417668", "ACCURACY": "6", "NBADRRETUR": "1", "ERROR_ADDR": "Rue Jean Jaurès, 98000 Monaco,", "CODE": "200" }, "geometry": { "type": "Point", "coordinates": [ 7.417663, 43.737890 ] } }
,
{ "type": "Feature", "properties": { "ADRESSE": "11 RUE JEAN JAURES", "CODE_POSTA": "06240", "VILLE": "BEAUSOLEIL", "PAYS": "France", "NOM": "Bac de regroupement", "DESCRIPTIO": "3060850 0340 CIVHO", "LAT": "43.737884", "LNG": "7.417668", "ACCURACY": "6", "NBADRRETUR": "1", "ERROR_ADDR": "Rue Jean Jaurès, 98000 Monaco,", "CODE": "200" }, "geometry": { "type": "Point", "coordinates": [ 7.417663, 43.737890 ] } }
,
{ "type": "Feature", "properties": { "ADRESSE": "11 RUE JEAN JAURES", "CODE_POSTA": "06240", "VILLE": "BEAUSOLEIL", "PAYS": "France", "NOM": "Bac de regroupement", "DESCRIPTIO": "5034883 0660 GT\/VF", "LAT": "43.737884", "LNG": "7.417668", "ACCURACY": "6", "NBADRRETUR": "1", "ERROR_ADDR": "Rue Jean Jaurès, 98000 Monaco,", "CODE": "200" }, "geometry": { "type": "Point", "coordinates": [ 7.417663, 43.737890 ] } }
,
{ "type": "Feature", "properties": { "ADRESSE": "11 RUE JEAN JAURES", "CODE_POSTA": "06240", "VILLE": "BEAUSOLEIL", "PAYS": "France", "NOM": "Bac de regroupement", "DESCRIPTIO": "5034883 0660 GT\/VF", "LAT": "43.737884", "LNG": "7.417668", "ACCURACY": "6", "NBADRRETUR": "1", "ERROR_ADDR": "Rue Jean Jaurès, 98000 Monaco,", "CODE": "200" }, "geometry": { "type": "Point", "coordinates": [ 7.417663, 43.737890 ] } }
,
{ "type": "Feature", "properties": { "ADRESSE": "13 RUE JEAN JAURES", "CODE_POSTA": "06240", "VILLE": "BEAUSOLEIL", "PAYS": "France", "NOM": "Bac de regroupement", "DESCRIPTIO": "3060852 0340 CIVHO", "LAT": "43.737884", "LNG": "7.417668", "ACCURACY": "6", "NBADRRETUR": "1", "ERROR_ADDR": "Rue Jean Jaurès, 98000 Monaco,", "CODE": "200" }, "geometry": { "type": "Point", "coordinates": [ 7.417663, 43.737890 ] } }
,
{ "type": "Feature", "properties": { "ADRESSE": "13 RUE JEAN JAURES", "CODE_POSTA": "06240", "VILLE": "BEAUSOLEIL", "PAYS": "France", "NOM": "Bac de regroupement", "DESCRIPTIO": "5537038 0660 CIBNO", "LAT": "43.737884", "LNG": "7.417668", "ACCURACY": "6", "NBADRRETUR": "1", "ERROR_ADDR": "Rue Jean Jaurès, 98000 Monaco,", "CODE": "200" }, "geometry": { "type": "Point", "coordinates": [ 7.417663, 43.737890 ] } }
,
{ "type": "Feature", "properties": { "ADRESSE": "13 RUE JEAN JAURES", "CODE_POSTA": "06240", "VILLE": "BEAUSOLEIL", "PAYS": "France", "NOM": "Bac de regroupement", "DESCRIPTIO": "3060854 0660 CIJAO", "LAT": "43.737884", "LNG": "7.417668", "ACCURACY": "6", "NBADRRETUR": "1", "ERROR_ADDR": "Rue Jean Jaurès, 98000 Monaco,", "CODE": "200" }, "geometry": { "type": "Point", "coordinates": [ 7.417663, 43.737890 ] } }
,
{ "type": "Feature", "properties": { "ADRESSE": "13 RUE JEAN JAURES", "CODE_POSTA": "06240", "VILLE": "BEAUSOLEIL", "PAYS": "France", "NOM": "Bac de regroupement", "DESCRIPTIO": "5296030 0660 GT\/VF", "LAT": "43.737884", "LNG": "7.417668", "ACCURACY": "6", "NBADRRETUR": "1", "ERROR_ADDR": "Rue Jean Jaurès, 98000 Monaco,", "CODE": "200" }, "geometry": { "type": "Point", "coordinates": [ 7.417663, 43.737890 ] } }
,
{ "type": "Feature", "properties": { "ADRESSE": "2 RUE JULES FERRY", "CODE_POSTA": "06240", "VILLE": "BEAUSOLEIL", "PAYS": "France", "NOM": "Bac de regroupement", "DESCRIPTIO": "5730241 0340 VH OP", "LAT": "43.742663", "LNG": "7.424012", "ACCURACY": "8", "NBADRRETUR": "1", "ERROR_ADDR": "2, Rue Jules Ferry, 06240 Beau", "CODE": "200" }, "geometry": { "type": "Point", "coordinates": [ 7.424007, 43.742668 ] } }
,
{ "type": "Feature", "properties": { "ADRESSE": "2 RUE JULES FERRY", "CODE_POSTA": "06240", "VILLE": "BEAUSOLEIL", "PAYS": "France", "NOM": "Bac de regroupement", "DESCRIPTIO": "3060858 0660 CIBNO", "LAT": "43.742663", "LNG": "7.424012", "ACCURACY": "8", "NBADRRETUR": "1", "ERROR_ADDR": "2, Rue Jules Ferry, 06240 Beau", "CODE": "200" }, "geometry": { "type": "Point", "coordinates": [ 7.424007, 43.742668 ] } }
,
{ "type": "Feature", "properties": { "ADRESSE": "2 RUE JULES FERRY", "CODE_POSTA": "06240", "VILLE": "BEAUSOLEIL", "PAYS": "France", "NOM": "Bac de regroupement", "DESCRIPTIO": "5034905 0660 GT\/VF", "LAT": "43.742663", "LNG": "7.424012", "ACCURACY": "8", "NBADRRETUR": "1", "ERROR_ADDR": "2, Rue Jules Ferry, 06240 Beau", "CODE": "200" }, "geometry": { "type": "Point", "coordinates": [ 7.424007, 43.742668 ] } }
,
{ "type": "Feature", "properties": { "ADRESSE": "2 RUE JULES FERRY", "CODE_POSTA": "06240", "VILLE": "BEAUSOLEIL", "PAYS": "France", "NOM": "Bac de regroupement", "DESCRIPTIO": "5731114 0770 GT\/VF", "LAT": "43.742663", "LNG": "7.424012", "ACCURACY": "8", "NBADRRETUR": "1", "ERROR_ADDR": "2, Rue Jules Ferry, 06240 Beau", "CODE": "200" }, "geometry": { "type": "Point", "coordinates": [ 7.424007, 43.742668 ] } }
,
{ "type": "Feature", "properties": { "ADRESSE": "2 RUE JULES FERRY", "CODE_POSTA": "06240", "VILLE": "BEAUSOLEIL", "PAYS": "France", "NOM": "Bac de regroupement", "DESCRIPTIO": "5070831 0770 JA OP", "LAT": "43.742663", "LNG": "7.424012", "ACCURACY": "8", "NBADRRETUR": "1", "ERROR_ADDR": "2, Rue Jules Ferry, 06240 Beau", "CODE": "200" }, "geometry": { "type": "Point", "coordinates": [ 7.424007, 43.742668 ] } }
,
{ "type": "Feature", "properties": { "ADRESSE": "12 RUE JULES FERRY", "CODE_POSTA": "06240", "VILLE": "BEAUSOLEIL", "PAYS": "France", "NOM": "Bac de regroupement", "DESCRIPTIO": "5682556 0340 BN OP", "LAT": "43.743114", "LNG": "7.424712", "ACCURACY": "8", "NBADRRETUR": "1", "ERROR_ADDR": "12, Rue Jules Ferry, 06240 Bea", "CODE": "200" }, "geometry": { "type": "Point", "coordinates": [ 7.424708, 43.743119 ] } }
,
{ "type": "Feature", "properties": { "ADRESSE": "12 RUE JULES FERRY", "CODE_POSTA": "06240", "VILLE": "BEAUSOLEIL", "PAYS": "France", "NOM": "Bac de regroupement", "DESCRIPTIO": "5730152 0340 VH OP", "LAT": "43.743114", "LNG": "7.424712", "ACCURACY": "8", "NBADRRETUR": "1", "ERROR_ADDR": "12, Rue Jules Ferry, 06240 Bea", "CODE": "200" }, "geometry": { "type": "Point", "coordinates": [ 7.424708, 43.743119 ] } }
,
{ "type": "Feature", "properties": { "ADRESSE": "12 RUE JULES FERRY", "CODE_POSTA": "06240", "VILLE": "BEAUSOLEIL", "PAYS": "France", "NOM": "Bac de regroupement", "DESCRIPTIO": "5333324 0660 GT\/VF", "LAT": "43.743114", "LNG": "7.424712", "ACCURACY": "8", "NBADRRETUR": "1", "ERROR_ADDR": "12, Rue Jules Ferry, 06240 Bea", "CODE": "200" }, "geometry": { "type": "Point", "coordinates": [ 7.424708, 43.743119 ] } }
,
{ "type": "Feature", "properties": { "ADRESSE": "900 SQUARE KRAEMER", "CODE_POSTA": "06240", "VILLE": "BEAUSOLEIL", "PAYS": "France", "NOM": "Bac de regroupement", "DESCRIPTIO": "3060861 0340 CIVHO", "LAT": "43.7417", "LNG": "7.423694", "ACCURACY": "6", "NBADRRETUR": "1", "ERROR_ADDR": "Square Kraemer, 06240 Beausole", "CODE": "200" }, "geometry": { "type": "Point", "coordinates": [ 7.423690, 43.741706 ] } }
,
{ "type": "Feature", "properties": { "ADRESSE": "900 SQUARE KRAEMER", "CODE_POSTA": "06240", "VILLE": "BEAUSOLEIL", "PAYS": "France", "NOM": "Bac de regroupement", "DESCRIPTIO": "3060863 0660 CIBNO", "LAT": "43.7417", "LNG": "7.423694", "ACCURACY": "6", "NBADRRETUR": "1", "ERROR_ADDR": "Square Kraemer, 06240 Beausole", "CODE": "200" }, "geometry": { "type": "Point", "coordinates": [ 7.423690, 43.741706 ] } }
,
{ "type": "Feature", "properties": { "ADRESSE": "900 SQUARE KRAEMER", "CODE_POSTA": "06240", "VILLE": "BEAUSOLEIL", "PAYS": "France", "NOM": "Bac de regroupement", "DESCRIPTIO": "3060862 0660 CIJAO", "LAT": "43.7417", "LNG": "7.423694", "ACCURACY": "6", "NBADRRETUR": "1", "ERROR_ADDR": "Square Kraemer, 06240 Beausole", "CODE": "200" }, "geometry": { "type": "Point", "coordinates": [ 7.423690, 43.741706 ] } }
,
{ "type": "Feature", "properties": { "ADRESSE": "900 SQUARE KRAEMER", "CODE_POSTA": "06240", "VILLE": "BEAUSOLEIL", "PAYS": "France", "NOM": "Bac de regroupement", "DESCRIPTIO": "5034914 0660 GT\/VF", "LAT": "43.7417", "LNG": "7.423694", "ACCURACY": "6", "NBADRRETUR": "1", "ERROR_ADDR": "Square Kraemer, 06240 Beausole", "CODE": "200" }, "geometry": { "type": "Point", "coordinates": [ 7.423690, 43.741706 ] } }
,
{ "type": "Feature", "properties": { "ADRESSE": "2 AVENUE DU GENERAL DE GAULLE", "CODE_POSTA": "06240", "VILLE": "BEAUSOLEIL", "PAYS": "France", "NOM": "Bac de regroupement", "DESCRIPTIO": "3060864 0340 CIVHO", "LAT": "43.742942", "LNG": "7.425794", "ACCURACY": "8", "NBADRRETUR": "1", "ERROR_ADDR": "2, Avenue du Général de Gaulle", "CODE": "200" }, "geometry": { "type": "Point", "coordinates": [ 7.425790, 43.742947 ] } }
,
{ "type": "Feature", "properties": { "ADRESSE": "2 AVENUE DU GENERAL DE GAULLE", "CODE_POSTA": "06240", "VILLE": "BEAUSOLEIL", "PAYS": "France", "NOM": "Bac de regroupement", "DESCRIPTIO": "5081128 0660 GT\/VF", "LAT": "43.742942", "LNG": "7.425794", "ACCURACY": "8", "NBADRRETUR": "1", "ERROR_ADDR": "2, Avenue du Général de Gaulle", "CODE": "200" }, "geometry": { "type": "Point", "coordinates": [ 7.425790, 43.742947 ] } }
,
{ "type": "Feature", "properties": { "ADRESSE": "2 AVENUE DU GENERAL DE GAULLE", "CODE_POSTA": "06240", "VILLE": "BEAUSOLEIL", "PAYS": "France", "NOM": "Bac de regroupement", "DESCRIPTIO": "5763723 0660 GT\/VF", "LAT": "43.742942", "LNG": "7.425794", "ACCURACY": "8", "NBADRRETUR": "1", "ERROR_ADDR": "2, Avenue du Général de Gaulle", "CODE": "200" }, "geometry": { "type": "Point", "coordinates": [ 7.425790, 43.742947 ] } }
,
{ "type": "Feature", "properties": { "ADRESSE": "2 AVENUE DU GENERAL DE GAULLE", "CODE_POSTA": "06240", "VILLE": "BEAUSOLEIL", "PAYS": "France", "NOM": "Bac de regroupement", "DESCRIPTIO": "5763724 0660 GT\/VF", "LAT": "43.742942", "LNG": "7.425794", "ACCURACY": "8", "NBADRRETUR": "1", "ERROR_ADDR": "2, Avenue du Général de Gaulle", "CODE": "200" }, "geometry": { "type": "Point", "coordinates": [ 7.425790, 43.742947 ] } }
,
{ "type": "Feature", "properties": { "ADRESSE": "2F AVENUE DU GENERAL DE GAULLE", "CODE_POSTA": "06240", "VILLE": "BEAUSOLEIL", "PAYS": "France", "NOM": "Bac de regroupement", "DESCRIPTIO": "6058808 0340 VH OP", "LAT": "43.742942", "LNG": "7.425794", "ACCURACY": "8", "NBADRRETUR": "1", "ERROR_ADDR": "2, Avenue du Général de Gaulle", "CODE": "200" }, "geometry": { "type": "Point", "coordinates": [ 7.425790, 43.742947 ] } }
,
{ "type": "Feature", "properties": { "ADRESSE": "2F AVENUE DU GENERAL DE GAULLE", "CODE_POSTA": "06240", "VILLE": "BEAUSOLEIL", "PAYS": "France", "NOM": "Bac de regroupement", "DESCRIPTIO": "6058809 0340 VH OP", "LAT": "43.742942", "LNG": "7.425794", "ACCURACY": "8", "NBADRRETUR": "1", "ERROR_ADDR": "2, Avenue du Général de Gaulle", "CODE": "200" }, "geometry": { "type": "Point", "coordinates": [ 7.425790, 43.742947 ] } }
,
{ "type": "Feature", "properties": { "ADRESSE": "2F AVENUE DU GENERAL DE GAULLE", "CODE_POSTA": "06240", "VILLE": "BEAUSOLEIL", "PAYS": "France", "NOM": "Bac de regroupement", "DESCRIPTIO": "5778578 0660 GT\/VF", "LAT": "43.742942", "LNG": "7.425794", "ACCURACY": "8", "NBADRRETUR": "1", "ERROR_ADDR": "2, Avenue du Général de Gaulle", "CODE": "200" }, "geometry": { "type": "Point", "coordinates": [ 7.425790, 43.742947 ] } }
,
{ "type": "Feature", "properties": { "ADRESSE": "2F AVENUE DU GENERAL DE GAULLE", "CODE_POSTA": "06240", "VILLE": "BEAUSOLEIL", "PAYS": "France", "NOM": "Bac de regroupement", "DESCRIPTIO": "5778579 0660 GT\/VF", "LAT": "43.742942", "LNG": "7.425794", "ACCURACY": "8", "NBADRRETUR": "1", "ERROR_ADDR": "2, Avenue du Général de Gaulle", "CODE": "200" }, "geometry": { "type": "Point", "coordinates": [ 7.425790, 43.742947 ] } }
,
{ "type": "Feature", "properties": { "ADRESSE": "4 AVENUE DU GENERAL DE GAULLE", "CODE_POSTA": "06240", "VILLE": "BEAUSOLEIL", "PAYS": "France", "NOM": "Bac de regroupement", "DESCRIPTIO": "3060867 0340 CIVHO", "LAT": "43.743247", "LNG": "7.426172", "ACCURACY": "8", "NBADRRETUR": "1", "ERROR_ADDR": "4, Avenue du Général de Gaulle", "CODE": "200" }, "geometry": { "type": "Point", "coordinates": [ 7.426168, 43.743252 ] } }
,
{ "type": "Feature", "properties": { "ADRESSE": "4 AVENUE DU GENERAL DE GAULLE", "CODE_POSTA": "06240", "VILLE": "BEAUSOLEIL", "PAYS": "France", "NOM": "Bac de regroupement", "DESCRIPTIO": "3594371 0660 CIBNO", "LAT": "43.743247", "LNG": "7.426172", "ACCURACY": "8", "NBADRRETUR": "1", "ERROR_ADDR": "4, Avenue du Général de Gaulle", "CODE": "200" }, "geometry": { "type": "Point", "coordinates": [ 7.426168, 43.743252 ] } }
,
{ "type": "Feature", "properties": { "ADRESSE": "8 AVENUE DU GENERAL DE GAULLE", "CODE_POSTA": "06240", "VILLE": "BEAUSOLEIL", "PAYS": "France", "NOM": "Bac de regroupement", "DESCRIPTIO": "3060868 0340 CIVHO", "LAT": "43.744111", "LNG": "7.427385", "ACCURACY": "8", "NBADRRETUR": "1", "ERROR_ADDR": "8, Avenue du Général de Gaulle", "CODE": "200" }, "geometry": { "type": "Point", "coordinates": [ 7.427380, 43.744116 ] } }
,
{ "type": "Feature", "properties": { "ADRESSE": "8 AVENUE DU GENERAL DE GAULLE", "CODE_POSTA": "06240", "VILLE": "BEAUSOLEIL", "PAYS": "France", "NOM": "Bac de regroupement", "DESCRIPTIO": "5084117 0340 GT\/VF", "LAT": "43.744111", "LNG": "7.427385", "ACCURACY": "8", "NBADRRETUR": "1", "ERROR_ADDR": "8, Avenue du Général de Gaulle", "CODE": "200" }, "geometry": { "type": "Point", "coordinates": [ 7.427380, 43.744116 ] } }
,
{ "type": "Feature", "properties": { "ADRESSE": "8 AVENUE DU GENERAL DE GAULLE", "CODE_POSTA": "06240", "VILLE": "BEAUSOLEIL", "PAYS": "France", "NOM": "Bac de regroupement", "DESCRIPTIO": "3060870 0660 CIBNO", "LAT": "43.744111", "LNG": "7.427385", "ACCURACY": "8", "NBADRRETUR": "1", "ERROR_ADDR": "8, Avenue du Général de Gaulle", "CODE": "200" }, "geometry": { "type": "Point", "coordinates": [ 7.427380, 43.744116 ] } }
,
{ "type": "Feature", "properties": { "ADRESSE": "8 AVENUE DU GENERAL DE GAULLE", "CODE_POSTA": "06240", "VILLE": "BEAUSOLEIL", "PAYS": "France", "NOM": "Bac de regroupement", "DESCRIPTIO": "5084003 0660 GT\/VF", "LAT": "43.744111", "LNG": "7.427385", "ACCURACY": "8", "NBADRRETUR": "1", "ERROR_ADDR": "8, Avenue du Général de Gaulle", "CODE": "200" }, "geometry": { "type": "Point", "coordinates": [ 7.427380, 43.744116 ] } }
,
{ "type": "Feature", "properties": { "ADRESSE": "8 AVENUE DU GENERAL DE GAULLE", "CODE_POSTA": "06240", "VILLE": "BEAUSOLEIL", "PAYS": "France", "NOM": "Bac de regroupement", "DESCRIPTIO": "5333936 0660 GT\/VF", "LAT": "43.744111", "LNG": "7.427385", "ACCURACY": "8", "NBADRRETUR": "1", "ERROR_ADDR": "8, Avenue du Général de Gaulle", "CODE": "200" }, "geometry": { "type": "Point", "coordinates": [ 7.427380, 43.744116 ] } }
,
{ "type": "Feature", "properties": { "ADRESSE": "8 AVENUE DU GENERAL DE GAULLE", "CODE_POSTA": "06240", "VILLE": "BEAUSOLEIL", "PAYS": "France", "NOM": "Bac de regroupement", "DESCRIPTIO": "5335068 0660 GT\/VF", "LAT": "43.744111", "LNG": "7.427385", "ACCURACY": "8", "NBADRRETUR": "1", "ERROR_ADDR": "8, Avenue du Général de Gaulle", "CODE": "200" }, "geometry": { "type": "Point", "coordinates": [ 7.427380, 43.744116 ] } }
,
{ "type": "Feature", "properties": { "ADRESSE": "8 AVENUE DU GENERAL DE GAULLE", "CODE_POSTA": "06240", "VILLE": "BEAUSOLEIL", "PAYS": "France", "NOM": "Bac de regroupement", "DESCRIPTIO": "5454824 0660 GT\/VF", "LAT": "43.744111", "LNG": "7.427385", "ACCURACY": "8", "NBADRRETUR": "1", "ERROR_ADDR": "8, Avenue du Général de Gaulle", "CODE": "200" }, "geometry": { "type": "Point", "coordinates": [ 7.427380, 43.744116 ] } }
,
{ "type": "Feature", "properties": { "ADRESSE": "8 AVENUE DU GENERAL DE GAULLE", "CODE_POSTA": "06240", "VILLE": "BEAUSOLEIL", "PAYS": "France", "NOM": "Bac de regroupement", "DESCRIPTIO": "5054174 0660 JA OP", "LAT": "43.744111", "LNG": "7.427385", "ACCURACY": "8", "NBADRRETUR": "1", "ERROR_ADDR": "8, Avenue du Général de Gaulle", "CODE": "200" }, "geometry": { "type": "Point", "coordinates": [ 7.427380, 43.744116 ] } }
,
{ "type": "Feature", "properties": { "ADRESSE": "8 AVENUE DU GENERAL DE GAULLE", "CODE_POSTA": "06240", "VILLE": "BEAUSOLEIL", "PAYS": "France", "NOM": "Bac de regroupement", "DESCRIPTIO": "5333940 0660 JA OP", "LAT": "43.744111", "LNG": "7.427385", "ACCURACY": "8", "NBADRRETUR": "1", "ERROR_ADDR": "8, Avenue du Général de Gaulle", "CODE": "200" }, "geometry": { "type": "Point", "coordinates": [ 7.427380, 43.744116 ] } }
,
{ "type": "Feature", "properties": { "ADRESSE": "8 AVENUE DU GENERAL DE GAULLE", "CODE_POSTA": "06240", "VILLE": "BEAUSOLEIL", "PAYS": "France", "NOM": "Bac de regroupement", "DESCRIPTIO": "3849571 0770 JA OP", "LAT": "43.744111", "LNG": "7.427385", "ACCURACY": "8", "NBADRRETUR": "1", "ERROR_ADDR": "8, Avenue du Général de Gaulle", "CODE": "200" }, "geometry": { "type": "Point", "coordinates": [ 7.427380, 43.744116 ] } }
,
{ "type": "Feature", "properties": { "ADRESSE": "9 AVENUE DU GENERAL DE GAULLE", "CODE_POSTA": "06240", "VILLE": "BEAUSOLEIL", "PAYS": "France", "NOM": "Bac de regroupement", "DESCRIPTIO": "3060871 0660 CIBNO", "LAT": "43.743656", "LNG": "7.426662", "ACCURACY": "6", "NBADRRETUR": "1", "ERROR_ADDR": "Avenue du Général de Gaulle, 0", "CODE": "200" }, "geometry": { "type": "Point", "coordinates": [ 7.426658, 43.743662 ] } }
,
{ "type": "Feature", "properties": { "ADRESSE": "20 AVENUE DU GENERAL DE GAULLE", "CODE_POSTA": "06240", "VILLE": "BEAUSOLEIL", "PAYS": "France", "NOM": "Bac de regroupement", "DESCRIPTIO": "3060872 0340 CIVHO", "LAT": "43.744259", "LNG": "7.427502", "ACCURACY": "8", "NBADRRETUR": "1", "ERROR_ADDR": "20, Avenue du Général de Gaull", "CODE": "200" }, "geometry": { "type": "Point", "coordinates": [ 7.427498, 43.744265 ] } }
,
{ "type": "Feature", "properties": { "ADRESSE": "25F AVENUE DU GENERAL DE GAULL", "CODE_POSTA": "06240", "VILLE": "BEAUSOLEIL", "PAYS": "France", "NOM": "Bac de regroupement", "DESCRIPTIO": "3720322 0340 BN OP", "LAT": "43.744358", "LNG": "7.427548", "ACCURACY": "8", "NBADRRETUR": "1", "ERROR_ADDR": "25, Avenue du Général de Gaull", "CODE": "200" }, "geometry": { "type": "Point", "coordinates": [ 7.427543, 43.744363 ] } }
,
{ "type": "Feature", "properties": { "ADRESSE": "25F AVENUE DU GENERAL DE GAULL", "CODE_POSTA": "06240", "VILLE": "BEAUSOLEIL", "PAYS": "France", "NOM": "Bac de regroupement", "DESCRIPTIO": "3060877 0340 CIVHO", "LAT": "43.744358", "LNG": "7.427548", "ACCURACY": "8", "NBADRRETUR": "1", "ERROR_ADDR": "25, Avenue du Général de Gaull", "CODE": "200" }, "geometry": { "type": "Point", "coordinates": [ 7.427543, 43.744363 ] } }
,
{ "type": "Feature", "properties": { "ADRESSE": "25F AVENUE DU GENERAL DE GAULL", "CODE_POSTA": "06240", "VILLE": "BEAUSOLEIL", "PAYS": "France", "NOM": "Bac de regroupement", "DESCRIPTIO": "5726501 0660 JA OP", "LAT": "43.744358", "LNG": "7.427548", "ACCURACY": "8", "NBADRRETUR": "1", "ERROR_ADDR": "25, Avenue du Général de Gaull", "CODE": "200" }, "geometry": { "type": "Point", "coordinates": [ 7.427543, 43.744363 ] } }
,
{ "type": "Feature", "properties": { "ADRESSE": "9000 RUE DU MARCHE", "CODE_POSTA": "06240", "VILLE": "BEAUSOLEIL", "PAYS": "France", "NOM": "Bac de regroupement", "DESCRIPTIO": "3515239 0340 CIVHO", "LAT": "43.742747", "LNG": "7.426104", "ACCURACY": "6", "NBADRRETUR": "1", "ERROR_ADDR": "Rue du Marché, 06240 Beausolei", "CODE": "200" }, "geometry": { "type": "Point", "coordinates": [ 7.426100, 43.742752 ] } }
,
{ "type": "Feature", "properties": { "ADRESSE": "9000 RUE DU MARCHE", "CODE_POSTA": "06240", "VILLE": "BEAUSOLEIL", "PAYS": "France", "NOM": "Bac de regroupement", "DESCRIPTIO": "5078923 0660 CIBNO", "LAT": "43.742747", "LNG": "7.426104", "ACCURACY": "6", "NBADRRETUR": "1", "ERROR_ADDR": "Rue du Marché, 06240 Beausolei", "CODE": "200" }, "geometry": { "type": "Point", "coordinates": [ 7.426100, 43.742752 ] } }
,
{ "type": "Feature", "properties": { "ADRESSE": "9000 RUE DU MARCHE", "CODE_POSTA": "06240", "VILLE": "BEAUSOLEIL", "PAYS": "France", "NOM": "Bac de regroupement", "DESCRIPTIO": "3844791 0660 JA OP", "LAT": "43.742747", "LNG": "7.426104", "ACCURACY": "6", "NBADRRETUR": "1", "ERROR_ADDR": "Rue du Marché, 06240 Beausolei", "CODE": "200" }, "geometry": { "type": "Point", "coordinates": [ 7.426100, 43.742752 ] } }
,
{ "type": "Feature", "properties": { "ADRESSE": "9000 RUE DU MARCHE", "CODE_POSTA": "06240", "VILLE": "BEAUSOLEIL", "PAYS": "France", "NOM": "Bac de regroupement", "DESCRIPTIO": "6218567 0770 GT\/VF", "LAT": "43.742747", "LNG": "7.426104", "ACCURACY": "6", "NBADRRETUR": "1", "ERROR_ADDR": "Rue du Marché, 06240 Beausolei", "CODE": "200" }, "geometry": { "type": "Point", "coordinates": [ 7.426100, 43.742752 ] } }
,
{ "type": "Feature", "properties": { "ADRESSE": "9000 RUE DU MARCHE", "CODE_POSTA": "06240", "VILLE": "BEAUSOLEIL", "PAYS": "France", "NOM": "Bac de regroupement", "DESCRIPTIO": "6218568 0770 GT\/VF", "LAT": "43.742747", "LNG": "7.426104", "ACCURACY": "6", "NBADRRETUR": "1", "ERROR_ADDR": "Rue du Marché, 06240 Beausolei", "CODE": "200" }, "geometry": { "type": "Point", "coordinates": [ 7.426100, 43.742752 ] } }
,
{ "type": "Feature", "properties": { "ADRESSE": "9000 RUE DU MARCHE", "CODE_POSTA": "06240", "VILLE": "BEAUSOLEIL", "PAYS": "France", "NOM": "Bac de regroupement", "DESCRIPTIO": "6231335 0770 GT\/VF", "LAT": "43.742747", "LNG": "7.426104", "ACCURACY": "6", "NBADRRETUR": "1", "ERROR_ADDR": "Rue du Marché, 06240 Beausolei", "CODE": "200" }, "geometry": { "type": "Point", "coordinates": [ 7.426100, 43.742752 ] } }
,
{ "type": "Feature", "properties": { "ADRESSE": "1 AVENUE DU MARECHAL FOCH", "CODE_POSTA": "06240", "VILLE": "BEAUSOLEIL", "PAYS": "France", "NOM": "Bac de regroupement", "DESCRIPTIO": "5446397 0340 VH OP", "LAT": "43.740891", "LNG": "7.421579", "ACCURACY": "8", "NBADRRETUR": "1", "ERROR_ADDR": "1, Avenue du Maréchal Foch, 06", "CODE": "200" }, "geometry": { "type": "Point", "coordinates": [ 7.421575, 43.740896 ] } }
,
{ "type": "Feature", "properties": { "ADRESSE": "1 AVENUE DU MARECHAL FOCH", "CODE_POSTA": "06240", "VILLE": "BEAUSOLEIL", "PAYS": "France", "NOM": "Bac de regroupement", "DESCRIPTIO": "3060883 0660 CIBNO", "LAT": "43.740891", "LNG": "7.421579", "ACCURACY": "8", "NBADRRETUR": "1", "ERROR_ADDR": "1, Avenue du Maréchal Foch, 06", "CODE": "200" }, "geometry": { "type": "Point", "coordinates": [ 7.421575, 43.740896 ] } }
,
{ "type": "Feature", "properties": { "ADRESSE": "1 AVENUE DU MARECHAL FOCH", "CODE_POSTA": "06240", "VILLE": "BEAUSOLEIL", "PAYS": "France", "NOM": "Bac de regroupement", "DESCRIPTIO": "3060882 0660 CIJAO", "LAT": "43.740891", "LNG": "7.421579", "ACCURACY": "8", "NBADRRETUR": "1", "ERROR_ADDR": "1, Avenue du Maréchal Foch, 06", "CODE": "200" }, "geometry": { "type": "Point", "coordinates": [ 7.421575, 43.740896 ] } }
,
{ "type": "Feature", "properties": { "ADRESSE": "6 AVENUE DU MARECHAL FOCH", "CODE_POSTA": "06240", "VILLE": "BEAUSOLEIL", "PAYS": "France", "NOM": "Bac de regroupement", "DESCRIPTIO": "3060884 0340 CIVHO", "LAT": "43.744375", "LNG": "7.426654", "ACCURACY": "8", "NBADRRETUR": "1", "ERROR_ADDR": "6, Avenue du Maréchal Foch, 06", "CODE": "200" }, "geometry": { "type": "Point", "coordinates": [ 7.426650, 43.744380 ] } }
,
{ "type": "Feature", "properties": { "ADRESSE": "6 AVENUE DU MARECHAL FOCH", "CODE_POSTA": "06240", "VILLE": "BEAUSOLEIL", "PAYS": "France", "NOM": "Bac de regroupement", "DESCRIPTIO": "5035136 0660 GT\/VF", "LAT": "43.744375", "LNG": "7.426654", "ACCURACY": "8", "NBADRRETUR": "1", "ERROR_ADDR": "6, Avenue du Maréchal Foch, 06", "CODE": "200" }, "geometry": { "type": "Point", "coordinates": [ 7.426650, 43.744380 ] } }
,
{ "type": "Feature", "properties": { "ADRESSE": "9 AVENUE DU MARECHAL FOCH", "CODE_POSTA": "06240", "VILLE": "BEAUSOLEIL", "PAYS": "France", "NOM": "Bac de regroupement", "DESCRIPTIO": "3827525 0340 CIVHO", "LAT": "43.743324", "LNG": "7.42432", "ACCURACY": "8", "NBADRRETUR": "1", "ERROR_ADDR": "9, Avenue du Maréchal Foch, 06", "CODE": "200" }, "geometry": { "type": "Point", "coordinates": [ 7.424315, 43.743330 ] } }
,
{ "type": "Feature", "properties": { "ADRESSE": "9 AVENUE DU MARECHAL FOCH", "CODE_POSTA": "06240", "VILLE": "BEAUSOLEIL", "PAYS": "France", "NOM": "Bac de regroupement", "DESCRIPTIO": "6407387 0660 BN\/OP", "LAT": "43.743324", "LNG": "7.42432", "ACCURACY": "8", "NBADRRETUR": "1", "ERROR_ADDR": "9, Avenue du Maréchal Foch, 06", "CODE": "200" }, "geometry": { "type": "Point", "coordinates": [ 7.424315, 43.743330 ] } }
,
{ "type": "Feature", "properties": { "ADRESSE": "9 AVENUE DU MARECHAL FOCH", "CODE_POSTA": "06240", "VILLE": "BEAUSOLEIL", "PAYS": "France", "NOM": "Bac de regroupement", "DESCRIPTIO": "3060887 0660 CIJAO", "LAT": "43.743324", "LNG": "7.42432", "ACCURACY": "8", "NBADRRETUR": "1", "ERROR_ADDR": "9, Avenue du Maréchal Foch, 06", "CODE": "200" }, "geometry": { "type": "Point", "coordinates": [ 7.424315, 43.743330 ] } }
,
{ "type": "Feature", "properties": { "ADRESSE": "9 AVENUE DU MARECHAL FOCH", "CODE_POSTA": "06240", "VILLE": "BEAUSOLEIL", "PAYS": "France", "NOM": "Bac de regroupement", "DESCRIPTIO": "5410870 0660 GT\/VF", "LAT": "43.743324", "LNG": "7.42432", "ACCURACY": "8", "NBADRRETUR": "1", "ERROR_ADDR": "9, Avenue du Maréchal Foch, 06", "CODE": "200" }, "geometry": { "type": "Point", "coordinates": [ 7.424315, 43.743330 ] } }
,
{ "type": "Feature", "properties": { "ADRESSE": "9 AVENUE DU MARECHAL FOCH", "CODE_POSTA": "06240", "VILLE": "BEAUSOLEIL", "PAYS": "France", "NOM": "Bac de regroupement", "DESCRIPTIO": "5446349 0660 GT\/VF", "LAT": "43.743324", "LNG": "7.42432", "ACCURACY": "8", "NBADRRETUR": "1", "ERROR_ADDR": "9, Avenue du Maréchal Foch, 06", "CODE": "200" }, "geometry": { "type": "Point", "coordinates": [ 7.424315, 43.743330 ] } }
,
{ "type": "Feature", "properties": { "ADRESSE": "23B AVENUE DU MARECHAL FOCH", "CODE_POSTA": "06240", "VILLE": "BEAUSOLEIL", "PAYS": "France", "NOM": "Bac de regroupement", "DESCRIPTIO": "3060888 0340 CIBNO", "LAT": "43.742201", "LNG": "7.422806", "ACCURACY": "8", "NBADRRETUR": "1", "ERROR_ADDR": "23, Avenue du Maréchal Foch, 0", "CODE": "200" }, "geometry": { "type": "Point", "coordinates": [ 7.422802, 43.742206 ] } }
,
{ "type": "Feature", "properties": { "ADRESSE": "23B AVENUE DU MARECHAL FOCH", "CODE_POSTA": "06240", "VILLE": "BEAUSOLEIL", "PAYS": "France", "NOM": "Bac de regroupement", "DESCRIPTIO": "3060889 0340 CIVHO", "LAT": "43.742201", "LNG": "7.422806", "ACCURACY": "8", "NBADRRETUR": "1", "ERROR_ADDR": "23, Avenue du Maréchal Foch, 0", "CODE": "200" }, "geometry": { "type": "Point", "coordinates": [ 7.422802, 43.742206 ] } }
,
{ "type": "Feature", "properties": { "ADRESSE": "23B AVENUE DU MARECHAL FOCH", "CODE_POSTA": "06240", "VILLE": "BEAUSOLEIL", "PAYS": "France", "NOM": "Bac de regroupement", "DESCRIPTIO": "3060890 0660 CIJAO", "LAT": "43.742201", "LNG": "7.422806", "ACCURACY": "8", "NBADRRETUR": "1", "ERROR_ADDR": "23, Avenue du Maréchal Foch, 0", "CODE": "200" }, "geometry": { "type": "Point", "coordinates": [ 7.422802, 43.742206 ] } }
,
{ "type": "Feature", "properties": { "ADRESSE": "23B AVENUE DU MARECHAL FOCH", "CODE_POSTA": "06240", "VILLE": "BEAUSOLEIL", "PAYS": "France", "NOM": "Bac de regroupement", "DESCRIPTIO": "5446314 0660 GT\/VF", "LAT": "43.742201", "LNG": "7.422806", "ACCURACY": "8", "NBADRRETUR": "1", "ERROR_ADDR": "23, Avenue du Maréchal Foch, 0", "CODE": "200" }, "geometry": { "type": "Point", "coordinates": [ 7.422802, 43.742206 ] } }
,
{ "type": "Feature", "properties": { "ADRESSE": "23B AVENUE DU MARECHAL FOCH", "CODE_POSTA": "06240", "VILLE": "BEAUSOLEIL", "PAYS": "France", "NOM": "Bac de regroupement", "DESCRIPTIO": "5446315 0660 GT\/VF", "LAT": "43.742201", "LNG": "7.422806", "ACCURACY": "8", "NBADRRETUR": "1", "ERROR_ADDR": "23, Avenue du Maréchal Foch, 0", "CODE": "200" }, "geometry": { "type": "Point", "coordinates": [ 7.422802, 43.742206 ] } }
,
{ "type": "Feature", "properties": { "ADRESSE": "27 AVENUE DU MARECHAL FOCH", "CODE_POSTA": "06240", "VILLE": "BEAUSOLEIL", "PAYS": "France", "NOM": "Bac de regroupement", "DESCRIPTIO": "5813992 0340 VH OP", "LAT": "43.741837", "LNG": "7.42268", "ACCURACY": "8", "NBADRRETUR": "1", "ERROR_ADDR": "27, Avenue du Maréchal Foch, 0", "CODE": "200" }, "geometry": { "type": "Point", "coordinates": [ 7.422675, 43.741842 ] } }
,
{ "type": "Feature", "properties": { "ADRESSE": "27 AVENUE DU MARECHAL FOCH", "CODE_POSTA": "06240", "VILLE": "BEAUSOLEIL", "PAYS": "France", "NOM": "Bac de regroupement", "DESCRIPTIO": "3060893 0660 CIBNO", "LAT": "43.741837", "LNG": "7.42268", "ACCURACY": "8", "NBADRRETUR": "1", "ERROR_ADDR": "27, Avenue du Maréchal Foch, 0", "CODE": "200" }, "geometry": { "type": "Point", "coordinates": [ 7.422675, 43.741842 ] } }
,
{ "type": "Feature", "properties": { "ADRESSE": "27 AVENUE DU MARECHAL FOCH", "CODE_POSTA": "06240", "VILLE": "BEAUSOLEIL", "PAYS": "France", "NOM": "Bac de regroupement", "DESCRIPTIO": "3060892 0660 CIJAO", "LAT": "43.741837", "LNG": "7.42268", "ACCURACY": "8", "NBADRRETUR": "1", "ERROR_ADDR": "27, Avenue du Maréchal Foch, 0", "CODE": "200" }, "geometry": { "type": "Point", "coordinates": [ 7.422675, 43.741842 ] } }
,
{ "type": "Feature", "properties": { "ADRESSE": "27 AVENUE DU MARECHAL FOCH", "CODE_POSTA": "06240", "VILLE": "BEAUSOLEIL", "PAYS": "France", "NOM": "Bac de regroupement", "DESCRIPTIO": "5035162 0660 GT\/VF", "LAT": "43.741837", "LNG": "7.42268", "ACCURACY": "8", "NBADRRETUR": "1", "ERROR_ADDR": "27, Avenue du Maréchal Foch, 0", "CODE": "200" }, "geometry": { "type": "Point", "coordinates": [ 7.422675, 43.741842 ] } }
,
{ "type": "Feature", "properties": { "ADRESSE": "28 AVENUE DU MARECHAL FOCH", "CODE_POSTA": "06240", "VILLE": "BEAUSOLEIL", "PAYS": "France", "NOM": "Bac de regroupement", "DESCRIPTIO": "3060894 0660 CIBNO", "LAT": "43.744415", "LNG": "7.426777", "ACCURACY": "8", "NBADRRETUR": "1", "ERROR_ADDR": "28, Avenue du Maréchal Foch, 0", "CODE": "200" }, "geometry": { "type": "Point", "coordinates": [ 7.426772, 43.744420 ] } }
,
{ "type": "Feature", "properties": { "ADRESSE": "6 RUE DES MARTYRS", "CODE_POSTA": "06240", "VILLE": "BEAUSOLEIL", "PAYS": "France", "NOM": "Bac de regroupement", "DESCRIPTIO": "3060897 0340 CIVHO", "LAT": "43.739476", "LNG": "7.419237", "ACCURACY": "8", "NBADRRETUR": "1", "ERROR_ADDR": "6, Rue des Martyrs de la Résis", "CODE": "200" }, "geometry": { "type": "Point", "coordinates": [ 7.419233, 43.739481 ] } }
,
{ "type": "Feature", "properties": { "ADRESSE": "6 RUE DES MARTYRS", "CODE_POSTA": "06240", "VILLE": "BEAUSOLEIL", "PAYS": "France", "NOM": "Bac de regroupement", "DESCRIPTIO": "3700739 0660 CIBNO", "LAT": "43.739476", "LNG": "7.419237", "ACCURACY": "8", "NBADRRETUR": "1", "ERROR_ADDR": "6, Rue des Martyrs de la Résis", "CODE": "200" }, "geometry": { "type": "Point", "coordinates": [ 7.419233, 43.739481 ] } }
,
{ "type": "Feature", "properties": { "ADRESSE": "6 RUE DES MARTYRS", "CODE_POSTA": "06240", "VILLE": "BEAUSOLEIL", "PAYS": "France", "NOM": "Bac de regroupement", "DESCRIPTIO": "5333569 0660 GT\/VF", "LAT": "43.739476", "LNG": "7.419237", "ACCURACY": "8", "NBADRRETUR": "1", "ERROR_ADDR": "6, Rue des Martyrs de la Résis", "CODE": "200" }, "geometry": { "type": "Point", "coordinates": [ 7.419233, 43.739481 ] } }
,
{ "type": "Feature", "properties": { "ADRESSE": "6 RUE DES MARTYRS", "CODE_POSTA": "06240", "VILLE": "BEAUSOLEIL", "PAYS": "France", "NOM": "Bac de regroupement", "DESCRIPTIO": "5333571 0660 GT\/VF", "LAT": "43.739476", "LNG": "7.419237", "ACCURACY": "8", "NBADRRETUR": "1", "ERROR_ADDR": "6, Rue des Martyrs de la Résis", "CODE": "200" }, "geometry": { "type": "Point", "coordinates": [ 7.419233, 43.739481 ] } }
,
{ "type": "Feature", "properties": { "ADRESSE": "16 RUE DES MARTYRS", "CODE_POSTA": "06240", "VILLE": "BEAUSOLEIL", "PAYS": "France", "NOM": "Bac de regroupement", "DESCRIPTIO": "3060899 0660 CIJAO", "LAT": "43.739522", "LNG": "7.417391", "ACCURACY": "6", "NBADRRETUR": "1", "ERROR_ADDR": "Rue des Martyrs de la Résistan", "CODE": "200" }, "geometry": { "type": "Point", "coordinates": [ 7.417386, 43.739527 ] } }
,
{ "type": "Feature", "properties": { "ADRESSE": "16 RUE DES MARTYRS", "CODE_POSTA": "06240", "VILLE": "BEAUSOLEIL", "PAYS": "France", "NOM": "Bac de regroupement", "DESCRIPTIO": "6443526 0660 GT\/VF", "LAT": "43.739522", "LNG": "7.417391", "ACCURACY": "6", "NBADRRETUR": "1", "ERROR_ADDR": "Rue des Martyrs de la Résistan", "CODE": "200" }, "geometry": { "type": "Point", "coordinates": [ 7.417386, 43.739527 ] } }
,
{ "type": "Feature", "properties": { "ADRESSE": "19 RUE DES MARTYRS", "CODE_POSTA": "06240", "VILLE": "BEAUSOLEIL", "PAYS": "France", "NOM": "Bac de regroupement", "DESCRIPTIO": "3844985 0340 BN OP", "LAT": "43.73944", "LNG": "7.416806", "ACCURACY": "8", "NBADRRETUR": "1", "ERROR_ADDR": "19, Rue des Martyrs de la Rési", "CODE": "200" }, "geometry": { "type": "Point", "coordinates": [ 7.416802, 43.739446 ] } }
,
{ "type": "Feature", "properties": { "ADRESSE": "19 RUE DES MARTYRS", "CODE_POSTA": "06240", "VILLE": "BEAUSOLEIL", "PAYS": "France", "NOM": "Bac de regroupement", "DESCRIPTIO": "4920949 0340 CIVHO", "LAT": "43.73944", "LNG": "7.416806", "ACCURACY": "8", "NBADRRETUR": "1", "ERROR_ADDR": "19, Rue des Martyrs de la Rési", "CODE": "200" }, "geometry": { "type": "Point", "coordinates": [ 7.416802, 43.739446 ] } }
,
{ "type": "Feature", "properties": { "ADRESSE": "19 RUE DES MARTYRS", "CODE_POSTA": "06240", "VILLE": "BEAUSOLEIL", "PAYS": "France", "NOM": "Bac de regroupement", "DESCRIPTIO": "3060902 0660 CIJAO", "LAT": "43.73944", "LNG": "7.416806", "ACCURACY": "8", "NBADRRETUR": "1", "ERROR_ADDR": "19, Rue des Martyrs de la Rési", "CODE": "200" }, "geometry": { "type": "Point", "coordinates": [ 7.416802, 43.739446 ] } }
,
{ "type": "Feature", "properties": { "ADRESSE": "19 RUE DES MARTYRS", "CODE_POSTA": "06240", "VILLE": "BEAUSOLEIL", "PAYS": "France", "NOM": "Bac de regroupement", "DESCRIPTIO": "5035177 0660 GT\/VF", "LAT": "43.73944", "LNG": "7.416806", "ACCURACY": "8", "NBADRRETUR": "1", "ERROR_ADDR": "19, Rue des Martyrs de la Rési", "CODE": "200" }, "geometry": { "type": "Point", "coordinates": [ 7.416802, 43.739446 ] } }
,
{ "type": "Feature", "properties": { "ADRESSE": "19 RUE DES MARTYRS", "CODE_POSTA": "06240", "VILLE": "BEAUSOLEIL", "PAYS": "France", "NOM": "Bac de regroupement", "DESCRIPTIO": "5081080 0660 GT\/VF", "LAT": "43.73944", "LNG": "7.416806", "ACCURACY": "8", "NBADRRETUR": "1", "ERROR_ADDR": "19, Rue des Martyrs de la Rési", "CODE": "200" }, "geometry": { "type": "Point", "coordinates": [ 7.416802, 43.739446 ] } }
,
{ "type": "Feature", "properties": { "ADRESSE": "23F RUE DES MARTYRS", "CODE_POSTA": "06240", "VILLE": "BEAUSOLEIL", "PAYS": "France", "NOM": "Bac de regroupement", "DESCRIPTIO": "3060903 0340 CIBNO", "LAT": "43.739536", "LNG": "7.415947", "ACCURACY": "8", "NBADRRETUR": "1", "ERROR_ADDR": "23, Rue des Martyrs de la Rési", "CODE": "200" }, "geometry": { "type": "Point", "coordinates": [ 7.415943, 43.739541 ] } }
,
{ "type": "Feature", "properties": { "ADRESSE": "23F RUE DES MARTYRS", "CODE_POSTA": "06240", "VILLE": "BEAUSOLEIL", "PAYS": "France", "NOM": "Bac de regroupement", "DESCRIPTIO": "3060904 0340 CIVHO", "LAT": "43.739536", "LNG": "7.415947", "ACCURACY": "8", "NBADRRETUR": "1", "ERROR_ADDR": "23, Rue des Martyrs de la Rési", "CODE": "200" }, "geometry": { "type": "Point", "coordinates": [ 7.415943, 43.739541 ] } }
,
{ "type": "Feature", "properties": { "ADRESSE": "23F RUE DES MARTYRS", "CODE_POSTA": "06240", "VILLE": "BEAUSOLEIL", "PAYS": "France", "NOM": "Bac de regroupement", "DESCRIPTIO": "3060905 0660 CIJAO", "LAT": "43.739536", "LNG": "7.415947", "ACCURACY": "8", "NBADRRETUR": "1", "ERROR_ADDR": "23, Rue des Martyrs de la Rési", "CODE": "200" }, "geometry": { "type": "Point", "coordinates": [ 7.415943, 43.739541 ] } }
,
{ "type": "Feature", "properties": { "ADRESSE": "24B RUE DES MARTYRS", "CODE_POSTA": "06240", "VILLE": "BEAUSOLEIL", "PAYS": "France", "NOM": "Bac de regroupement", "DESCRIPTIO": "3060906 0660 CIBNO", "LAT": "43.73945", "LNG": "7.416507", "ACCURACY": "8", "NBADRRETUR": "1", "ERROR_ADDR": "24, Rue des Martyrs de la Rési", "CODE": "200" }, "geometry": { "type": "Point", "coordinates": [ 7.416502, 43.739456 ] } }
,
{ "type": "Feature", "properties": { "ADRESSE": "24B RUE DES MARTYRS", "CODE_POSTA": "06240", "VILLE": "BEAUSOLEIL", "PAYS": "France", "NOM": "Bac de regroupement", "DESCRIPTIO": "5081088 0660 GT\/VF", "LAT": "43.73945", "LNG": "7.416507", "ACCURACY": "8", "NBADRRETUR": "1", "ERROR_ADDR": "24, Rue des Martyrs de la Rési", "CODE": "200" }, "geometry": { "type": "Point", "coordinates": [ 7.416502, 43.739456 ] } }
,
{ "type": "Feature", "properties": { "ADRESSE": "24B RUE DES MARTYRS", "CODE_POSTA": "06240", "VILLE": "BEAUSOLEIL", "PAYS": "France", "NOM": "Bac de regroupement", "DESCRIPTIO": "5544521 0660 GT\/VF", "LAT": "43.73945", "LNG": "7.416507", "ACCURACY": "8", "NBADRRETUR": "1", "ERROR_ADDR": "24, Rue des Martyrs de la Rési", "CODE": "200" }, "geometry": { "type": "Point", "coordinates": [ 7.416502, 43.739456 ] } }
,
{ "type": "Feature", "properties": { "ADRESSE": "28F RUE DES MARTYRS", "CODE_POSTA": "06240", "VILLE": "BEAUSOLEIL", "PAYS": "France", "NOM": "Bac de regroupement", "DESCRIPTIO": "3060907 0340 CIJAO", "LAT": "43.739536", "LNG": "7.415947", "ACCURACY": "8", "NBADRRETUR": "1", "ERROR_ADDR": "28, Rue des Martyrs de la Rési", "CODE": "200" }, "geometry": { "type": "Point", "coordinates": [ 7.415943, 43.739541 ] } }
,
{ "type": "Feature", "properties": { "ADRESSE": "36 RUE DES MARTYRS", "CODE_POSTA": "06240", "VILLE": "BEAUSOLEIL", "PAYS": "France", "NOM": "Bac de regroupement", "DESCRIPTIO": "5333383 0660 GT\/VF", "LAT": "43.739249", "LNG": "7.415531", "ACCURACY": "8", "NBADRRETUR": "1", "ERROR_ADDR": "36, Rue des Martyrs de la Rési", "CODE": "200" }, "geometry": { "type": "Point", "coordinates": [ 7.415528, 43.739255 ] } }
,
{ "type": "Feature", "properties": { "ADRESSE": "36 RUE DES MARTYRS", "CODE_POSTA": "06240", "VILLE": "BEAUSOLEIL", "PAYS": "France", "NOM": "Bac de regroupement", "DESCRIPTIO": "5333384 0660 GT\/VF", "LAT": "43.739249", "LNG": "7.415531", "ACCURACY": "8", "NBADRRETUR": "1", "ERROR_ADDR": "36, Rue des Martyrs de la Rési", "CODE": "200" }, "geometry": { "type": "Point", "coordinates": [ 7.415528, 43.739255 ] } }
,
{ "type": "Feature", "properties": { "ADRESSE": "36 RUE DES MARTYRS", "CODE_POSTA": "06240", "VILLE": "BEAUSOLEIL", "PAYS": "France", "NOM": "Bac de regroupement", "DESCRIPTIO": "6182734 0770 JA OP", "LAT": "43.739249", "LNG": "7.415531", "ACCURACY": "8", "NBADRRETUR": "1", "ERROR_ADDR": "36, Rue des Martyrs de la Rési", "CODE": "200" }, "geometry": { "type": "Point", "coordinates": [ 7.415528, 43.739255 ] } }
,
{ "type": "Feature", "properties": { "ADRESSE": "11 BOUCLE DES MONEGHETTI", "CODE_POSTA": "06240", "VILLE": "BEAUSOLEIL", "PAYS": "France", "NOM": "Bac de regroupement", "DESCRIPTIO": "3060914 0340 CIBNO", "LAT": "0", "LNG": "0", "ACCURACY": "0", "NBADRRETUR": "0", "ERROR_ADDR": "Adresse inconnue :  Aucune pos", "CODE": "602" }, "geometry": { "type": "Point", "coordinates": [ -0.000000, 0.000020 ] } }
,
{ "type": "Feature", "properties": { "ADRESSE": "11 BOUCLE DES MONEGHETTI", "CODE_POSTA": "06240", "VILLE": "BEAUSOLEIL", "PAYS": "France", "NOM": "Bac de regroupement", "DESCRIPTIO": "3505603 0340 CIVHO", "LAT": "0", "LNG": "0", "ACCURACY": "0", "NBADRRETUR": "0", "ERROR_ADDR": "Adresse inconnue :  Aucune pos", "CODE": "602" }, "geometry": { "type": "Point", "coordinates": [ -0.000000, 0.000020 ] } }
,
{ "type": "Feature", "properties": { "ADRESSE": "11 BOUCLE DES MONEGHETTI", "CODE_POSTA": "06240", "VILLE": "BEAUSOLEIL", "PAYS": "France", "NOM": "Bac de regroupement", "DESCRIPTIO": "5346444 0660 GT\/VF", "LAT": "0", "LNG": "0", "ACCURACY": "0", "NBADRRETUR": "0", "ERROR_ADDR": "Adresse inconnue :  Aucune pos", "CODE": "602" }, "geometry": { "type": "Point", "coordinates": [ -0.000000, 0.000020 ] } }
,
{ "type": "Feature", "properties": { "ADRESSE": "11 BOUCLE DES MONEGHETTI", "CODE_POSTA": "06240", "VILLE": "BEAUSOLEIL", "PAYS": "France", "NOM": "Bac de regroupement", "DESCRIPTIO": "3594382 0660 JA OP", "LAT": "0", "LNG": "0", "ACCURACY": "0", "NBADRRETUR": "0", "ERROR_ADDR": "Adresse inconnue :  Aucune pos", "CODE": "602" }, "geometry": { "type": "Point", "coordinates": [ -0.000000, 0.000020 ] } }
,
{ "type": "Feature", "properties": { "ADRESSE": "36 BOUCLE DES MONEGHETTI", "CODE_POSTA": "06240", "VILLE": "BEAUSOLEIL", "PAYS": "France", "NOM": "Bac de regroupement", "DESCRIPTIO": "3060916 0660 CIJAO", "LAT": "0", "LNG": "0", "ACCURACY": "0", "NBADRRETUR": "0", "ERROR_ADDR": "Adresse inconnue :  Aucune pos", "CODE": "602" }, "geometry": { "type": "Point", "coordinates": [ -0.000000, 0.000020 ] } }
,
{ "type": "Feature", "properties": { "ADRESSE": "36 BOUCLE DES MONEGHETTI", "CODE_POSTA": "06240", "VILLE": "BEAUSOLEIL", "PAYS": "France", "NOM": "Bac de regroupement", "DESCRIPTIO": "5824450 0660 GT\/VF", "LAT": "0", "LNG": "0", "ACCURACY": "0", "NBADRRETUR": "0", "ERROR_ADDR": "Adresse inconnue :  Aucune pos", "CODE": "602" }, "geometry": { "type": "Point", "coordinates": [ -0.000000, 0.000020 ] } }
,
{ "type": "Feature", "properties": { "ADRESSE": "36 BOUCLE DES MONEGHETTI", "CODE_POSTA": "06240", "VILLE": "BEAUSOLEIL", "PAYS": "France", "NOM": "Bac de regroupement", "DESCRIPTIO": "5824451 0660 GT\/VF", "LAT": "0", "LNG": "0", "ACCURACY": "0", "NBADRRETUR": "0", "ERROR_ADDR": "Adresse inconnue :  Aucune pos", "CODE": "602" }, "geometry": { "type": "Point", "coordinates": [ -0.000000, 0.000020 ] } }
,
{ "type": "Feature", "properties": { "ADRESSE": "30 . RN 7", "CODE_POSTA": "06240", "VILLE": "BEAUSOLEIL", "PAYS": "France", "NOM": "Bac de regroupement", "DESCRIPTIO": "3060917 0340 CIVHO", "LAT": "0", "LNG": "0", "ACCURACY": "0", "NBADRRETUR": "0", "ERROR_ADDR": "Adresse inconnue :  Aucune pos", "CODE": "602" }, "geometry": { "type": "Point", "coordinates": [ -0.000000, 0.000020 ] } }
,
{ "type": "Feature", "properties": { "ADRESSE": "30 . RN 7", "CODE_POSTA": "06240", "VILLE": "BEAUSOLEIL", "PAYS": "France", "NOM": "Bac de regroupement", "DESCRIPTIO": "6366893 0660 GT\/VF", "LAT": "0", "LNG": "0", "ACCURACY": "0", "NBADRRETUR": "0", "ERROR_ADDR": "Adresse inconnue :  Aucune pos", "CODE": "602" }, "geometry": { "type": "Point", "coordinates": [ -0.000000, 0.000020 ] } }
,
{ "type": "Feature", "properties": { "ADRESSE": "61 . RN 7", "CODE_POSTA": "06240", "VILLE": "BEAUSOLEIL", "PAYS": "France", "NOM": "Bac de regroupement", "DESCRIPTIO": "5035230 0340 GT\/VF", "LAT": "0", "LNG": "0", "ACCURACY": "0", "NBADRRETUR": "0", "ERROR_ADDR": "Adresse inconnue :  Aucune pos", "CODE": "602" }, "geometry": { "type": "Point", "coordinates": [ -0.000000, 0.000020 ] } }
,
{ "type": "Feature", "properties": { "ADRESSE": "61 . RN 7", "CODE_POSTA": "06240", "VILLE": "BEAUSOLEIL", "PAYS": "France", "NOM": "Bac de regroupement", "DESCRIPTIO": "5100110 0340 GT\/VF", "LAT": "0", "LNG": "0", "ACCURACY": "0", "NBADRRETUR": "0", "ERROR_ADDR": "Adresse inconnue :  Aucune pos", "CODE": "602" }, "geometry": { "type": "Point", "coordinates": [ -0.000000, 0.000020 ] } }
,
{ "type": "Feature", "properties": { "ADRESSE": "61 . RN 7", "CODE_POSTA": "06240", "VILLE": "BEAUSOLEIL", "PAYS": "France", "NOM": "Bac de regroupement", "DESCRIPTIO": "5100111 0340 GT\/VF", "LAT": "0", "LNG": "0", "ACCURACY": "0", "NBADRRETUR": "0", "ERROR_ADDR": "Adresse inconnue :  Aucune pos", "CODE": "602" }, "geometry": { "type": "Point", "coordinates": [ -0.000000, 0.000020 ] } }
,
{ "type": "Feature", "properties": { "ADRESSE": "61 . RN 7", "CODE_POSTA": "06240", "VILLE": "BEAUSOLEIL", "PAYS": "France", "NOM": "Bac de regroupement", "DESCRIPTIO": "5100112 0340 GT\/VF", "LAT": "0", "LNG": "0", "ACCURACY": "0", "NBADRRETUR": "0", "ERROR_ADDR": "Adresse inconnue :  Aucune pos", "CODE": "602" }, "geometry": { "type": "Point", "coordinates": [ -0.000000, 0.000020 ] } }
,
{ "type": "Feature", "properties": { "ADRESSE": "61 . RN 7", "CODE_POSTA": "06240", "VILLE": "BEAUSOLEIL", "PAYS": "France", "NOM": "Bac de regroupement", "DESCRIPTIO": "3060918 0660 CIJAO", "LAT": "0", "LNG": "0", "ACCURACY": "0", "NBADRRETUR": "0", "ERROR_ADDR": "Adresse inconnue :  Aucune pos", "CODE": "602" }, "geometry": { "type": "Point", "coordinates": [ -0.000000, 0.000020 ] } }
,
{ "type": "Feature", "properties": { "ADRESSE": "1038F . RN 7", "CODE_POSTA": "06240", "VILLE": "BEAUSOLEIL", "PAYS": "France", "NOM": "Bac de regroupement", "DESCRIPTIO": "3505831 0340 CIBNO", "LAT": "0", "LNG": "0", "ACCURACY": "0", "NBADRRETUR": "0", "ERROR_ADDR": "Adresse inconnue :  Aucune pos", "CODE": "602" }, "geometry": { "type": "Point", "coordinates": [ -0.000000, 0.000020 ] } }
,
{ "type": "Feature", "properties": { "ADRESSE": "1038F . RN 7", "CODE_POSTA": "06240", "VILLE": "BEAUSOLEIL", "PAYS": "France", "NOM": "Bac de regroupement", "DESCRIPTIO": "3505749 0340 CIJAO", "LAT": "0", "LNG": "0", "ACCURACY": "0", "NBADRRETUR": "0", "ERROR_ADDR": "Adresse inconnue :  Aucune pos", "CODE": "602" }, "geometry": { "type": "Point", "coordinates": [ -0.000000, 0.000020 ] } }
,
{ "type": "Feature", "properties": { "ADRESSE": "1038F . RN 7", "CODE_POSTA": "06240", "VILLE": "BEAUSOLEIL", "PAYS": "France", "NOM": "Bac de regroupement", "DESCRIPTIO": "5855257 0340 VH OP", "LAT": "0", "LNG": "0", "ACCURACY": "0", "NBADRRETUR": "0", "ERROR_ADDR": "Adresse inconnue :  Aucune pos", "CODE": "602" }, "geometry": { "type": "Point", "coordinates": [ -0.000000, 0.000020 ] } }
,
{ "type": "Feature", "properties": { "ADRESSE": "1038F . RN 7", "CODE_POSTA": "06240", "VILLE": "BEAUSOLEIL", "PAYS": "France", "NOM": "Bac de regroupement", "DESCRIPTIO": "5083318 0660 GT\/VF", "LAT": "0", "LNG": "0", "ACCURACY": "0", "NBADRRETUR": "0", "ERROR_ADDR": "Adresse inconnue :  Aucune pos", "CODE": "602" }, "geometry": { "type": "Point", "coordinates": [ -0.000000, 0.000020 ] } }
,
{ "type": "Feature", "properties": { "ADRESSE": "1280 . RN 7", "CODE_POSTA": "06240", "VILLE": "BEAUSOLEIL", "PAYS": "France", "NOM": "Bac de regroupement", "DESCRIPTIO": "3060928 0340 CIBNO", "LAT": "0", "LNG": "0", "ACCURACY": "0", "NBADRRETUR": "0", "ERROR_ADDR": "Adresse inconnue :  Aucune pos", "CODE": "602" }, "geometry": { "type": "Point", "coordinates": [ -0.000000, 0.000020 ] } }
,
{ "type": "Feature", "properties": { "ADRESSE": "1280 . RN 7", "CODE_POSTA": "06240", "VILLE": "BEAUSOLEIL", "PAYS": "France", "NOM": "Bac de regroupement", "DESCRIPTIO": "3495072 0340 CIJAO", "LAT": "0", "LNG": "0", "ACCURACY": "0", "NBADRRETUR": "0", "ERROR_ADDR": "Adresse inconnue :  Aucune pos", "CODE": "602" }, "geometry": { "type": "Point", "coordinates": [ -0.000000, 0.000020 ] } }
,
{ "type": "Feature", "properties": { "ADRESSE": "1280 . RN 7", "CODE_POSTA": "06240", "VILLE": "BEAUSOLEIL", "PAYS": "France", "NOM": "Bac de regroupement", "DESCRIPTIO": "3060929 0340 CIVHO", "LAT": "0", "LNG": "0", "ACCURACY": "0", "NBADRRETUR": "0", "ERROR_ADDR": "Adresse inconnue :  Aucune pos", "CODE": "602" }, "geometry": { "type": "Point", "coordinates": [ -0.000000, 0.000020 ] } }
,
{ "type": "Feature", "properties": { "ADRESSE": "1280 . RN 7", "CODE_POSTA": "06240", "VILLE": "BEAUSOLEIL", "PAYS": "France", "NOM": "Bac de regroupement", "DESCRIPTIO": "5035266 0340 GT\/VF", "LAT": "0", "LNG": "0", "ACCURACY": "0", "NBADRRETUR": "0", "ERROR_ADDR": "Adresse inconnue :  Aucune pos", "CODE": "602" }, "geometry": { "type": "Point", "coordinates": [ -0.000000, 0.000020 ] } }
,
{ "type": "Feature", "properties": { "ADRESSE": "1280 . RN 7", "CODE_POSTA": "06240", "VILLE": "BEAUSOLEIL", "PAYS": "France", "NOM": "Bac de regroupement", "DESCRIPTIO": "5056035 0340 GT\/VF", "LAT": "0", "LNG": "0", "ACCURACY": "0", "NBADRRETUR": "0", "ERROR_ADDR": "Adresse inconnue :  Aucune pos", "CODE": "602" }, "geometry": { "type": "Point", "coordinates": [ -0.000000, 0.000020 ] } }
,
{ "type": "Feature", "properties": { "ADRESSE": "2302 . RN 7", "CODE_POSTA": "06240", "VILLE": "BEAUSOLEIL", "PAYS": "France", "NOM": "Bac de regroupement", "DESCRIPTIO": "5358880 0340 BN OP", "LAT": "0", "LNG": "0", "ACCURACY": "0", "NBADRRETUR": "0", "ERROR_ADDR": "Adresse inconnue :  Aucune pos", "CODE": "602" }, "geometry": { "type": "Point", "coordinates": [ -0.000000, 0.000020 ] } }
,
{ "type": "Feature", "properties": { "ADRESSE": "2302 . RN 7", "CODE_POSTA": "06240", "VILLE": "BEAUSOLEIL", "PAYS": "France", "NOM": "Bac de regroupement", "DESCRIPTIO": "5333951 0340 GT\/VF", "LAT": "0", "LNG": "0", "ACCURACY": "0", "NBADRRETUR": "0", "ERROR_ADDR": "Adresse inconnue :  Aucune pos", "CODE": "602" }, "geometry": { "type": "Point", "coordinates": [ -0.000000, 0.000020 ] } }
,
{ "type": "Feature", "properties": { "ADRESSE": "2877 . RN 7", "CODE_POSTA": "06240", "VILLE": "BEAUSOLEIL", "PAYS": "France", "NOM": "Bac de regroupement", "DESCRIPTIO": "3060934 0660 CIBNO", "LAT": "0", "LNG": "0", "ACCURACY": "0", "NBADRRETUR": "0", "ERROR_ADDR": "Adresse inconnue :  Aucune pos", "CODE": "602" }, "geometry": { "type": "Point", "coordinates": [ -0.000000, 0.000020 ] } }
,
{ "type": "Feature", "properties": { "ADRESSE": "2877 . RN 7", "CODE_POSTA": "06240", "VILLE": "BEAUSOLEIL", "PAYS": "France", "NOM": "Bac de regroupement", "DESCRIPTIO": "3060933 0660 CIJAO", "LAT": "0", "LNG": "0", "ACCURACY": "0", "NBADRRETUR": "0", "ERROR_ADDR": "Adresse inconnue :  Aucune pos", "CODE": "602" }, "geometry": { "type": "Point", "coordinates": [ -0.000000, 0.000020 ] } }
,
{ "type": "Feature", "properties": { "ADRESSE": "2877 . RN 7", "CODE_POSTA": "06240", "VILLE": "BEAUSOLEIL", "PAYS": "France", "NOM": "Bac de regroupement", "DESCRIPTIO": "5333111 0660 GT\/VF", "LAT": "0", "LNG": "0", "ACCURACY": "0", "NBADRRETUR": "0", "ERROR_ADDR": "Adresse inconnue :  Aucune pos", "CODE": "602" }, "geometry": { "type": "Point", "coordinates": [ -0.000000, 0.000020 ] } }
,
{ "type": "Feature", "properties": { "ADRESSE": "2877 . RN 7", "CODE_POSTA": "06240", "VILLE": "BEAUSOLEIL", "PAYS": "France", "NOM": "Bac de regroupement", "DESCRIPTIO": "5804902 0660 GT\/VF", "LAT": "0", "LNG": "0", "ACCURACY": "0", "NBADRRETUR": "0", "ERROR_ADDR": "Adresse inconnue :  Aucune pos", "CODE": "602" }, "geometry": { "type": "Point", "coordinates": [ -0.000000, 0.000020 ] } }
,
{ "type": "Feature", "properties": { "ADRESSE": "2877 . RN 7", "CODE_POSTA": "06240", "VILLE": "BEAUSOLEIL", "PAYS": "France", "NOM": "Bac de regroupement", "DESCRIPTIO": "6431881 0660 GT\/VF", "LAT": "0", "LNG": "0", "ACCURACY": "0", "NBADRRETUR": "0", "ERROR_ADDR": "Adresse inconnue :  Aucune pos", "CODE": "602" }, "geometry": { "type": "Point", "coordinates": [ -0.000000, 0.000020 ] } }
,
{ "type": "Feature", "properties": { "ADRESSE": "2877 . RN 7", "CODE_POSTA": "06240", "VILLE": "BEAUSOLEIL", "PAYS": "France", "NOM": "Bac de regroupement", "DESCRIPTIO": "6433146 0660 GT\/VF", "LAT": "0", "LNG": "0", "ACCURACY": "0", "NBADRRETUR": "0", "ERROR_ADDR": "Adresse inconnue :  Aucune pos", "CODE": "602" }, "geometry": { "type": "Point", "coordinates": [ -0.000000, 0.000020 ] } }
,
{ "type": "Feature", "properties": { "ADRESSE": "2930 . RN 7", "CODE_POSTA": "06240", "VILLE": "BEAUSOLEIL", "PAYS": "France", "NOM": "Bac de regroupement", "DESCRIPTIO": "5908215 0340 CIVHO", "LAT": "0", "LNG": "0", "ACCURACY": "0", "NBADRRETUR": "0", "ERROR_ADDR": "Adresse inconnue :  Aucune pos", "CODE": "602" }, "geometry": { "type": "Point", "coordinates": [ -0.000000, 0.000020 ] } }
,
{ "type": "Feature", "properties": { "ADRESSE": "2930 . RN 7", "CODE_POSTA": "06240", "VILLE": "BEAUSOLEIL", "PAYS": "France", "NOM": "Bac de regroupement", "DESCRIPTIO": "3060935 0660 CIBNO", "LAT": "0", "LNG": "0", "ACCURACY": "0", "NBADRRETUR": "0", "ERROR_ADDR": "Adresse inconnue :  Aucune pos", "CODE": "602" }, "geometry": { "type": "Point", "coordinates": [ -0.000000, 0.000020 ] } }
,
{ "type": "Feature", "properties": { "ADRESSE": "2930 . RN 7", "CODE_POSTA": "06240", "VILLE": "BEAUSOLEIL", "PAYS": "France", "NOM": "Bac de regroupement", "DESCRIPTIO": "5035299 0660 GT\/VF", "LAT": "0", "LNG": "0", "ACCURACY": "0", "NBADRRETUR": "0", "ERROR_ADDR": "Adresse inconnue :  Aucune pos", "CODE": "602" }, "geometry": { "type": "Point", "coordinates": [ -0.000000, 0.000020 ] } }
,
{ "type": "Feature", "properties": { "ADRESSE": "2930 . RN 7", "CODE_POSTA": "06240", "VILLE": "BEAUSOLEIL", "PAYS": "France", "NOM": "Bac de regroupement", "DESCRIPTIO": "5080877 0660 GT\/VF", "LAT": "0", "LNG": "0", "ACCURACY": "0", "NBADRRETUR": "0", "ERROR_ADDR": "Adresse inconnue :  Aucune pos", "CODE": "602" }, "geometry": { "type": "Point", "coordinates": [ -0.000000, 0.000020 ] } }
,
{ "type": "Feature", "properties": { "ADRESSE": "2956 . RN 7", "CODE_POSTA": "06240", "VILLE": "BEAUSOLEIL", "PAYS": "France", "NOM": "Bac de regroupement", "DESCRIPTIO": "6456906 0340 CIBNO", "LAT": "0", "LNG": "0", "ACCURACY": "0", "NBADRRETUR": "0", "ERROR_ADDR": "Adresse inconnue :  Aucune pos", "CODE": "602" }, "geometry": { "type": "Point", "coordinates": [ -0.000000, 0.000020 ] } }
,
{ "type": "Feature", "properties": { "ADRESSE": "2956 . RN 7", "CODE_POSTA": "06240", "VILLE": "BEAUSOLEIL", "PAYS": "France", "NOM": "Bac de regroupement", "DESCRIPTIO": "3505613 0340 CIJAO", "LAT": "0", "LNG": "0", "ACCURACY": "0", "NBADRRETUR": "0", "ERROR_ADDR": "Adresse inconnue :  Aucune pos", "CODE": "602" },